[
  {
    "id": "887ec6e4235e",
    "name": "Stóri Geysir",
    "lat": 64.3138382,
    "lng": -20.2995104,
    "category": "hot_spring",
    "region": "Other",
    "rating": null,
    "description": null,
    "thumbnail": null,
    "website": null,
    "wikipedia": "is:Geysir",
    "phone": null,
    "opening_hours": null,
    "opening_hours_raw": null,
    "cuisine": null,
    "stars": null,
    "email": null,
    "address": null,
    "popularity": 0.5
  },
  {
    "id": "aaf3e7f1c62b",
    "name": "Strokkur",
    "lat": 64.3126964,
    "lng": -20.3007733,
    "category": "hot_spring",
    "region": "Other",
    "rating": null,
    "description": null,
    "thumbnail": null,
    "website": null,
    "wikipedia": "is:Strokkur (hver)",
    "phone": null,
    "opening_hours": null,
    "opening_hours_raw": null,
    "cuisine": null,
    "stars": null,
    "email": null,
    "address": null,
    "popularity": 0.5
  },
  {
    "id": "8598ed4b7bce",
    "name": "Hverasvæði",
    "lat": 64.0009867,
    "lng": -21.1886415,
    "category": "hot_spring",
    "region": "Capital Region",
    "rating": null,
    "description": null,
    "thumbnail": null,
    "website": null,
    "wikipedia": null,
    "phone": null,
    "opening_hours": {
      "type": "structured",
      "days": {
        "monday": [
          {
            "open": "09:00",
            "close": "18:00"
          }
        ],
        "tuesday": [
          {
            "open": "09:00",
            "close": "18:00"
          }
        ],
        "wednesday": [
          {
            "open": "09:00",
            "close": "18:00"
          }
        ],
        "thursday": [
          {
            "open": "09:00",
            "close": "18:00"
          }
        ],
        "friday": [
          {
            "open": "09:00",
            "close": "18:00"
          }
        ],
        "saturday": [
          {
            "open": "10:00",
            "close": "17:00"
          }
        ],
        "sunday": [
          {
            "open": "10:00",
            "close": "17:00"
          }
        ]
      }
    },
    "opening_hours_raw": "Mo-Fr 09:00-18:00; Sa,Su 10:00-17:00",
    "cuisine": null,
    "stars": null,
    "email": null,
    "address": null,
    "popularity": 0.5
  },
  {
    "id": "864e39a560ab",
    "name": "Leirgerður",
    "lat": 64.0071356,
    "lng": -21.1808227,
    "category": "hot_spring",
    "region": "Capital Region",
    "rating": null,
    "description": null,
    "thumbnail": null,
    "website": null,
    "wikipedia": null,
    "phone": null,
    "opening_hours": null,
    "opening_hours_raw": null,
    "cuisine": null,
    "stars": null,
    "email": null,
    "address": null,
    "popularity": 0.5
  },
  {
    "id": "3401c38b16dc",
    "name": "Snorralaug",
    "lat": 64.6639937,
    "lng": -21.2912231,
    "category": "hot_spring",
    "region": "Northwest",
    "rating": null,
    "description": null,
    "thumbnail": null,
    "website": null,
    "wikipedia": null,
    "phone": null,
    "opening_hours": null,
    "opening_hours_raw": null,
    "cuisine": null,
    "stars": null,
    "email": null,
    "address": null,
    "popularity": 0.5
  },
  {
    "id": "e8dd94e236d7",
    "name": "Reykholtshver",
    "lat": 64.174563,
    "lng": -20.4411651,
    "category": "hot_spring",
    "region": "South",
    "rating": null,
    "description": null,
    "thumbnail": null,
    "website": null,
    "wikipedia": null,
    "phone": null,
    "opening_hours": null,
    "opening_hours_raw": null,
    "cuisine": null,
    "stars": null,
    "email": null,
    "address": null,
    "popularity": 0.5
  },
  {
    "id": "7611cadb9c7a",
    "name": "Gunnuhver",
    "lat": 63.8194447,
    "lng": -22.6841797,
    "category": "hot_spring",
    "region": "Other",
    "rating": null,
    "description": null,
    "thumbnail": null,
    "website": null,
    "wikipedia": "de:Gunnuhver",
    "phone": null,
    "opening_hours": null,
    "opening_hours_raw": null,
    "cuisine": null,
    "stars": null,
    "email": null,
    "address": null,
    "popularity": 0.5
  },
  {
    "id": "138d7821c7ad",
    "name": "Stórihver",
    "lat": 63.9563223,
    "lng": -19.1421386,
    "category": "hot_spring",
    "region": "South",
    "rating": null,
    "description": "Name means: Big hot spring.",
    "thumbnail": null,
    "website": null,
    "wikipedia": null,
    "phone": null,
    "opening_hours": null,
    "opening_hours_raw": null,
    "cuisine": null,
    "stars": null,
    "email": null,
    "address": null,
    "popularity": 0.5
  },
  {
    "id": "bfac6db52175",
    "name": "Hákarlavogur",
    "lat": 65.9985306,
    "lng": -21.3160954,
    "category": "hot_spring",
    "region": "Northwest",
    "rating": null,
    "description": null,
    "thumbnail": null,
    "website": null,
    "wikipedia": null,
    "phone": null,
    "opening_hours": null,
    "opening_hours_raw": null,
    "cuisine": null,
    "stars": null,
    "email": null,
    "address": null,
    "popularity": 0.5
  },
  {
    "id": "48421d8556cc",
    "name": "Galtahryggjarlaug",
    "lat": 65.8397114,
    "lng": -22.677512,
    "category": "hot_spring",
    "region": "Northwest",
    "rating": null,
    "description": null,
    "thumbnail": null,
    "website": null,
    "wikipedia": null,
    "phone": null,
    "opening_hours": null,
    "opening_hours_raw": null,
    "cuisine": null,
    "stars": null,
    "email": null,
    "address": null,
    "popularity": 0.5
  },
  {
    "id": "6c3f3493b44b",
    "name": "Hörgshlíðarlaug",
    "lat": 65.8310531,
    "lng": -22.6288698,
    "category": "hot_spring",
    "region": "Northwest",
    "rating": null,
    "description": null,
    "thumbnail": null,
    "website": null,
    "wikipedia": null,
    "phone": null,
    "opening_hours": null,
    "opening_hours_raw": null,
    "cuisine": null,
    "stars": null,
    "email": null,
    "address": null,
    "popularity": 0.5
  },
  {
    "id": "8258ee686b40",
    "name": "Guðrúnarlaug",
    "lat": 65.2328274,
    "lng": -21.8047591,
    "category": "hot_spring",
    "region": "Northwest",
    "rating": null,
    "description": null,
    "thumbnail": null,
    "website": null,
    "wikipedia": null,
    "phone": null,
    "opening_hours": null,
    "opening_hours_raw": null,
    "cuisine": null,
    "stars": null,
    "email": null,
    "address": null,
    "popularity": 0.5
  },
  {
    "id": "b7fe999e29a6",
    "name": "hot spring",
    "lat": 64.0260864,
    "lng": -21.1973172,
    "category": "hot_spring",
    "region": "Capital Region",
    "rating": null,
    "description": null,
    "thumbnail": null,
    "website": null,
    "wikipedia": null,
    "phone": null,
    "opening_hours": null,
    "opening_hours_raw": null,
    "cuisine": null,
    "stars": null,
    "email": null,
    "address": null,
    "popularity": 0.5
  },
  {
    "id": "73aaa4538094",
    "name": "Martinslaug",
    "lat": 64.3267843,
    "lng": -20.2868028,
    "category": "hot_spring",
    "region": "Other",
    "rating": null,
    "description": null,
    "thumbnail": null,
    "website": null,
    "wikipedia": null,
    "phone": null,
    "opening_hours": null,
    "opening_hours_raw": null,
    "cuisine": null,
    "stars": null,
    "email": null,
    "address": null,
    "popularity": 0.5
  },
  {
    "id": "0fc62f73c506",
    "name": "Pollurinn",
    "lat": 65.6492014,
    "lng": -23.8944838,
    "category": "hot_spring",
    "region": "Northwest",
    "rating": null,
    "description": null,
    "thumbnail": null,
    "website": null,
    "wikipedia": null,
    "phone": null,
    "opening_hours": null,
    "opening_hours_raw": null,
    "cuisine": null,
    "stars": null,
    "email": null,
    "address": null,
    "popularity": 0.5
  },
  {
    "id": "11bfa0fa4d1e",
    "name": "Hörgshlíðarlaug",
    "lat": 65.8507492,
    "lng": -22.6033192,
    "category": "hot_spring",
    "region": "Northwest",
    "rating": null,
    "description": null,
    "thumbnail": null,
    "website": null,
    "wikipedia": null,
    "phone": null,
    "opening_hours": null,
    "opening_hours_raw": null,
    "cuisine": null,
    "stars": null,
    "email": null,
    "address": null,
    "popularity": 0.5
  },
  {
    "id": "4296af929450",
    "name": "Hitulaug",
    "lat": 64.8613105,
    "lng": -17.6568674,
    "category": "hot_spring",
    "region": "East",
    "rating": null,
    "description": null,
    "thumbnail": null,
    "website": null,
    "wikipedia": null,
    "phone": null,
    "opening_hours": null,
    "opening_hours_raw": null,
    "cuisine": null,
    "stars": null,
    "email": null,
    "address": null,
    "popularity": 0.5
  },
  {
    "id": "3b12c7f4417e",
    "name": "Hot Spring",
    "lat": 64.032052,
    "lng": -21.1974094,
    "category": "hot_spring",
    "region": "Capital Region",
    "rating": null,
    "description": null,
    "thumbnail": null,
    "website": null,
    "wikipedia": null,
    "phone": null,
    "opening_hours": null,
    "opening_hours_raw": null,
    "cuisine": null,
    "stars": null,
    "email": null,
    "address": null,
    "popularity": 0.5
  },
  {
    "id": "c112a58bad3a",
    "name": "Mud Pot",
    "lat": 64.0547966,
    "lng": -21.2902392,
    "category": "hot_spring",
    "region": "Capital Region",
    "rating": null,
    "description": null,
    "thumbnail": null,
    "website": null,
    "wikipedia": null,
    "phone": null,
    "opening_hours": null,
    "opening_hours_raw": null,
    "cuisine": null,
    "stars": null,
    "email": null,
    "address": null,
    "popularity": 0.5
  },
  {
    "id": "b47cbc14d52c",
    "name": "Mud Pot",
    "lat": 64.0498719,
    "lng": -21.191668,
    "category": "hot_spring",
    "region": "Capital Region",
    "rating": null,
    "description": null,
    "thumbnail": null,
    "website": null,
    "wikipedia": null,
    "phone": null,
    "opening_hours": null,
    "opening_hours_raw": null,
    "cuisine": null,
    "stars": null,
    "email": null,
    "address": null,
    "popularity": 0.5
  },
  {
    "id": "b98d69243b3e",
    "name": "Mud Pot",
    "lat": 64.0500303,
    "lng": -21.1993687,
    "category": "hot_spring",
    "region": "Capital Region",
    "rating": null,
    "description": null,
    "thumbnail": null,
    "website": null,
    "wikipedia": null,
    "phone": null,
    "opening_hours": null,
    "opening_hours_raw": null,
    "cuisine": null,
    "stars": null,
    "email": null,
    "address": null,
    "popularity": 0.5
  },
  {
    "id": "258cef66f85e",
    "name": "Mud Pot",
    "lat": 64.0510831,
    "lng": -21.194479,
    "category": "hot_spring",
    "region": "Capital Region",
    "rating": null,
    "description": null,
    "thumbnail": null,
    "website": null,
    "wikipedia": null,
    "phone": null,
    "opening_hours": null,
    "opening_hours_raw": null,
    "cuisine": null,
    "stars": null,
    "email": null,
    "address": null,
    "popularity": 0.5
  },
  {
    "id": "c75c73bb3bbc",
    "name": "Mud Pot",
    "lat": 64.0511535,
    "lng": -21.1931701,
    "category": "hot_spring",
    "region": "Capital Region",
    "rating": null,
    "description": null,
    "thumbnail": null,
    "website": null,
    "wikipedia": null,
    "phone": null,
    "opening_hours": null,
    "opening_hours_raw": null,
    "cuisine": null,
    "stars": null,
    "email": null,
    "address": null,
    "popularity": 0.5
  },
  {
    "id": "4ff62e44702f",
    "name": "Mud Pot",
    "lat": 64.0531991,
    "lng": -21.2790088,
    "category": "hot_spring",
    "region": "Capital Region",
    "rating": null,
    "description": null,
    "thumbnail": null,
    "website": null,
    "wikipedia": null,
    "phone": null,
    "opening_hours": null,
    "opening_hours_raw": null,
    "cuisine": null,
    "stars": null,
    "email": null,
    "address": null,
    "popularity": 0.5
  },
  {
    "id": "f2058a001911",
    "name": "Mud Pot",
    "lat": 64.0547013,
    "lng": -21.2782578,
    "category": "hot_spring",
    "region": "Capital Region",
    "rating": null,
    "description": null,
    "thumbnail": null,
    "website": null,
    "wikipedia": null,
    "phone": null,
    "opening_hours": null,
    "opening_hours_raw": null,
    "cuisine": null,
    "stars": null,
    "email": null,
    "address": null,
    "popularity": 0.5
  },
  {
    "id": "7d7e01b1c886",
    "name": "Mud Pot",
    "lat": 64.0951837,
    "lng": -21.2732327,
    "category": "hot_spring",
    "region": "Capital Region",
    "rating": null,
    "description": null,
    "thumbnail": null,
    "website": null,
    "wikipedia": null,
    "phone": null,
    "opening_hours": null,
    "opening_hours_raw": null,
    "cuisine": null,
    "stars": null,
    "email": null,
    "address": null,
    "popularity": 0.5
  },
  {
    "id": "ed065c10c93b",
    "name": "Mud Pot",
    "lat": 64.0951896,
    "lng": -21.2748125,
    "category": "hot_spring",
    "region": "Capital Region",
    "rating": null,
    "description": null,
    "thumbnail": null,
    "website": null,
    "wikipedia": null,
    "phone": null,
    "opening_hours": null,
    "opening_hours_raw": null,
    "cuisine": null,
    "stars": null,
    "email": null,
    "address": null,
    "popularity": 0.5
  },
  {
    "id": "7279f1a3268a",
    "name": "Mud Pot",
    "lat": 64.0967914,
    "lng": -21.276969,
    "category": "hot_spring",
    "region": "Capital Region",
    "rating": null,
    "description": null,
    "thumbnail": null,
    "website": null,
    "wikipedia": null,
    "phone": null,
    "opening_hours": null,
    "opening_hours_raw": null,
    "cuisine": null,
    "stars": null,
    "email": null,
    "address": null,
    "popularity": 0.5
  },
  {
    "id": "f92af4b3c841",
    "name": "Mud Pot",
    "lat": 64.0973304,
    "lng": -21.2744772,
    "category": "hot_spring",
    "region": "Capital Region",
    "rating": null,
    "description": null,
    "thumbnail": null,
    "website": null,
    "wikipedia": null,
    "phone": null,
    "opening_hours": null,
    "opening_hours_raw": null,
    "cuisine": null,
    "stars": null,
    "email": null,
    "address": null,
    "popularity": 0.5
  },
  {
    "id": "b9b63ba6c33c",
    "name": "Hot Spring",
    "lat": 64.0394439,
    "lng": -21.1946292,
    "category": "hot_spring",
    "region": "Capital Region",
    "rating": null,
    "description": null,
    "thumbnail": null,
    "website": null,
    "wikipedia": null,
    "phone": null,
    "opening_hours": null,
    "opening_hours_raw": null,
    "cuisine": null,
    "stars": null,
    "email": null,
    "address": null,
    "popularity": 0.5
  },
  {
    "id": "87b20d08382a",
    "name": "Hot Spring",
    "lat": 64.0412379,
    "lng": -21.1937065,
    "category": "hot_spring",
    "region": "Capital Region",
    "rating": null,
    "description": null,
    "thumbnail": null,
    "website": null,
    "wikipedia": null,
    "phone": null,
    "opening_hours": null,
    "opening_hours_raw": null,
    "cuisine": null,
    "stars": null,
    "email": null,
    "address": null,
    "popularity": 0.5
  },
  {
    "id": "e8b50f48c08f",
    "name": "Mud Pot",
    "lat": 64.0693802,
    "lng": -21.2147538,
    "category": "hot_spring",
    "region": "Capital Region",
    "rating": null,
    "description": null,
    "thumbnail": null,
    "website": null,
    "wikipedia": null,
    "phone": null,
    "opening_hours": null,
    "opening_hours_raw": null,
    "cuisine": null,
    "stars": null,
    "email": null,
    "address": null,
    "popularity": 0.5
  },
  {
    "id": "0ebac46166c3",
    "name": "Hot Spring",
    "lat": 64.0479581,
    "lng": -21.2022396,
    "category": "hot_spring",
    "region": "Capital Region",
    "rating": null,
    "description": null,
    "thumbnail": null,
    "website": null,
    "wikipedia": null,
    "phone": null,
    "opening_hours": null,
    "opening_hours_raw": null,
    "cuisine": null,
    "stars": null,
    "email": null,
    "address": null,
    "popularity": 0.5
  },
  {
    "id": "6adab4319226",
    "name": "Þórunnarlaug",
    "lat": 65.0301535,
    "lng": -18.3305256,
    "category": "hot_spring",
    "region": "North",
    "rating": null,
    "description": null,
    "thumbnail": null,
    "website": null,
    "wikipedia": null,
    "phone": null,
    "opening_hours": null,
    "opening_hours_raw": null,
    "cuisine": null,
    "stars": null,
    "email": null,
    "address": null,
    "popularity": 0.5
  },
  {
    "id": "ed7360611df6",
    "name": "Reykholtslaug",
    "lat": 64.1610284,
    "lng": -19.8111986,
    "category": "hot_spring",
    "region": "South",
    "rating": null,
    "description": null,
    "thumbnail": null,
    "website": null,
    "wikipedia": null,
    "phone": null,
    "opening_hours": null,
    "opening_hours_raw": null,
    "cuisine": null,
    "stars": null,
    "email": null,
    "address": null,
    "popularity": 0.5
  },
  {
    "id": "742582876a20",
    "name": "Hrunalaug",
    "lat": 64.1328406,
    "lng": -20.2551153,
    "category": "hot_spring",
    "region": "South",
    "rating": null,
    "description": null,
    "thumbnail": null,
    "website": null,
    "wikipedia": null,
    "phone": null,
    "opening_hours": null,
    "opening_hours_raw": null,
    "cuisine": null,
    "stars": null,
    "email": null,
    "address": null,
    "popularity": 0.5
  },
  {
    "id": "dc0f18e1e663",
    "name": "Vegavinnubaðið",
    "lat": 65.6264434,
    "lng": -22.9506755,
    "category": "hot_spring",
    "region": "Northwest",
    "rating": null,
    "description": null,
    "thumbnail": null,
    "website": null,
    "wikipedia": null,
    "phone": null,
    "opening_hours": null,
    "opening_hours_raw": null,
    "cuisine": null,
    "stars": null,
    "email": null,
    "address": null,
    "popularity": 0.5
  },
  {
    "id": "39cb05cf3786",
    "name": "Skátalaug",
    "lat": 63.9039411,
    "lng": -22.0431686,
    "category": "hot_spring",
    "region": "Other",
    "rating": null,
    "description": null,
    "thumbnail": null,
    "website": null,
    "wikipedia": null,
    "phone": null,
    "opening_hours": null,
    "opening_hours_raw": null,
    "cuisine": null,
    "stars": null,
    "email": null,
    "address": null,
    "popularity": 0.5
  },
  {
    "id": "3b75bd6c1a83",
    "name": "Rauðamelsölkelda",
    "lat": 64.8955836,
    "lng": -22.3388027,
    "category": "hot_spring",
    "region": "Northwest",
    "rating": null,
    "description": null,
    "thumbnail": null,
    "website": null,
    "wikipedia": null,
    "phone": null,
    "opening_hours": null,
    "opening_hours_raw": null,
    "cuisine": null,
    "stars": null,
    "email": null,
    "address": null,
    "popularity": 0.5
  },
  {
    "id": "9f726040b7e4",
    "name": "Kirkjuból",
    "lat": 66.2435863,
    "lng": -22.0888818,
    "category": "hot_spring",
    "region": "Westfjords",
    "rating": null,
    "description": null,
    "thumbnail": null,
    "website": null,
    "wikipedia": null,
    "phone": null,
    "opening_hours": null,
    "opening_hours_raw": null,
    "cuisine": null,
    "stars": null,
    "email": null,
    "address": null,
    "popularity": 0.5
  },
  {
    "id": "85fb60f01849",
    "name": "Laugarfellslaug",
    "lat": 64.9189252,
    "lng": -15.4624516,
    "category": "hot_spring",
    "region": "East",
    "rating": null,
    "description": null,
    "thumbnail": null,
    "website": null,
    "wikipedia": null,
    "phone": null,
    "opening_hours": null,
    "opening_hours_raw": null,
    "cuisine": null,
    "stars": null,
    "email": null,
    "address": null,
    "popularity": 0.5
  },
  {
    "id": "e41660cd6c32",
    "name": "Gvendarbrunnur",
    "lat": 65.7339222,
    "lng": -19.1157883,
    "category": "hot_spring",
    "region": "Northeast",
    "rating": null,
    "description": null,
    "thumbnail": null,
    "website": null,
    "wikipedia": null,
    "phone": null,
    "opening_hours": null,
    "opening_hours_raw": null,
    "cuisine": null,
    "stars": null,
    "email": null,
    "address": null,
    "popularity": 0.5
  },
  {
    "id": "cddf91ac88fd",
    "name": "Svartárlindir",
    "lat": 64.957197,
    "lng": -16.5671897,
    "category": "hot_spring",
    "region": "East",
    "rating": null,
    "description": null,
    "thumbnail": null,
    "website": null,
    "wikipedia": null,
    "phone": null,
    "opening_hours": null,
    "opening_hours_raw": null,
    "cuisine": null,
    "stars": null,
    "email": null,
    "address": null,
    "popularity": 0.5
  },
  {
    "id": "208947fcdc28",
    "name": "Hot spring",
    "lat": 64.0697826,
    "lng": -21.3235517,
    "category": "hot_spring",
    "region": "Capital Region",
    "rating": null,
    "description": null,
    "thumbnail": null,
    "website": null,
    "wikipedia": null,
    "phone": null,
    "opening_hours": null,
    "opening_hours_raw": null,
    "cuisine": null,
    "stars": null,
    "email": null,
    "address": null,
    "popularity": 0.5
  },
  {
    "id": "52445dd58889",
    "name": "Mud Pot",
    "lat": 64.0399933,
    "lng": -21.1583752,
    "category": "hot_spring",
    "region": "Capital Region",
    "rating": null,
    "description": null,
    "thumbnail": null,
    "website": null,
    "wikipedia": null,
    "phone": null,
    "opening_hours": null,
    "opening_hours_raw": null,
    "cuisine": null,
    "stars": null,
    "email": null,
    "address": null,
    "popularity": 0.5
  },
  {
    "id": "3e77365b33ad",
    "name": "Sturlungalaug",
    "lat": 64.8695255,
    "lng": -22.2838099,
    "category": "hot_spring",
    "region": "Northwest",
    "rating": null,
    "description": null,
    "thumbnail": null,
    "website": null,
    "wikipedia": null,
    "phone": null,
    "opening_hours": null,
    "opening_hours_raw": null,
    "cuisine": null,
    "stars": null,
    "email": null,
    "address": null,
    "popularity": 0.5
  },
  {
    "id": "ac228d8e0cc4",
    "name": "Ytri- Hitlaug",
    "lat": 64.9660925,
    "lng": -17.6722366,
    "category": "hot_spring",
    "region": "East",
    "rating": null,
    "description": null,
    "thumbnail": null,
    "website": null,
    "wikipedia": null,
    "phone": null,
    "opening_hours": null,
    "opening_hours_raw": null,
    "cuisine": null,
    "stars": null,
    "email": null,
    "address": null,
    "popularity": 0.5
  },
  {
    "id": "7063ebd5223d",
    "name": "Lindin",
    "lat": 65.999371,
    "lng": -16.5095064,
    "category": "hot_spring",
    "region": "East",
    "rating": null,
    "description": null,
    "thumbnail": null,
    "website": null,
    "wikipedia": null,
    "phone": null,
    "opening_hours": null,
    "opening_hours_raw": null,
    "cuisine": null,
    "stars": null,
    "email": null,
    "address": null,
    "popularity": 0.5
  },
  {
    "id": "8d764585eb44",
    "name": "Sjónarsker",
    "lat": 64.0277866,
    "lng": -16.9823798,
    "category": "viewpoint",
    "region": "East",
    "rating": null,
    "description": null,
    "thumbnail": null,
    "website": null,
    "wikipedia": null,
    "phone": null,
    "opening_hours": null,
    "opening_hours_raw": null,
    "cuisine": null,
    "stars": null,
    "email": null,
    "address": null,
    "popularity": 0.5
  },
  {
    "id": "a35ffe30414e",
    "name": "Faxafoss/Vatnsleysufoss",
    "lat": 64.2258979,
    "lng": -20.3384764,
    "category": "viewpoint",
    "region": "Other",
    "rating": null,
    "description": null,
    "thumbnail": null,
    "website": null,
    "wikipedia": null,
    "phone": null,
    "opening_hours": null,
    "opening_hours_raw": null,
    "cuisine": null,
    "stars": null,
    "email": null,
    "address": null,
    "popularity": 0.5
  },
  {
    "id": "54b4ecab3b51",
    "name": "Látrabjarg",
    "lat": 65.5021325,
    "lng": -24.530792,
    "category": "viewpoint",
    "region": "Westfjords",
    "rating": null,
    "description": null,
    "thumbnail": null,
    "website": null,
    "wikipedia": null,
    "phone": null,
    "opening_hours": null,
    "opening_hours_raw": null,
    "cuisine": null,
    "stars": null,
    "email": null,
    "address": null,
    "popularity": 0.5
  },
  {
    "id": "2f2f3b46bdf4",
    "name": "Sjónarnípa",
    "lat": 64.0304748,
    "lng": -16.9366593,
    "category": "viewpoint",
    "region": "East",
    "rating": null,
    "description": null,
    "thumbnail": null,
    "website": null,
    "wikipedia": null,
    "phone": null,
    "opening_hours": null,
    "opening_hours_raw": null,
    "cuisine": null,
    "stars": null,
    "email": null,
    "address": null,
    "popularity": 0.5
  },
  {
    "id": "75da2164fde3",
    "name": "Fjallsárlón",
    "lat": 64.014237,
    "lng": -16.3722031,
    "category": "viewpoint",
    "region": "East",
    "rating": null,
    "description": null,
    "thumbnail": null,
    "website": null,
    "wikipedia": null,
    "phone": null,
    "opening_hours": null,
    "opening_hours_raw": null,
    "cuisine": null,
    "stars": null,
    "email": null,
    "address": null,
    "popularity": 0.5
  },
  {
    "id": "112aac4c4035",
    "name": "Bird watching",
    "lat": 65.3401583,
    "lng": -20.808996,
    "category": "viewpoint",
    "region": "Northwest",
    "rating": null,
    "description": null,
    "thumbnail": null,
    "website": null,
    "wikipedia": null,
    "phone": null,
    "opening_hours": null,
    "opening_hours_raw": null,
    "cuisine": null,
    "stars": null,
    "email": null,
    "address": null,
    "popularity": 0.5
  },
  {
    "id": "a4a3e937dca8",
    "name": "Glymur",
    "lat": 64.387353,
    "lng": -21.2568469,
    "category": "viewpoint",
    "region": "Capital Region",
    "rating": null,
    "description": null,
    "thumbnail": null,
    "website": null,
    "wikipedia": null,
    "phone": null,
    "opening_hours": null,
    "opening_hours_raw": null,
    "cuisine": null,
    "stars": null,
    "email": null,
    "address": null,
    "popularity": 0.5
  },
  {
    "id": "ca3e0a25f514",
    "name": "Skógafoss Viewpoint",
    "lat": 63.5318742,
    "lng": -19.5105934,
    "category": "viewpoint",
    "region": "Other",
    "rating": null,
    "description": null,
    "thumbnail": null,
    "website": null,
    "wikipedia": null,
    "phone": null,
    "opening_hours": null,
    "opening_hours_raw": null,
    "cuisine": null,
    "stars": null,
    "email": null,
    "address": null,
    "popularity": 0.5
  },
  {
    "id": "d9be7ab46a04",
    "name": "Dettifoss",
    "lat": 65.8170446,
    "lng": -16.3839805,
    "category": "viewpoint",
    "region": "East",
    "rating": null,
    "description": null,
    "thumbnail": null,
    "website": null,
    "wikipedia": null,
    "phone": null,
    "opening_hours": null,
    "opening_hours_raw": null,
    "cuisine": null,
    "stars": null,
    "email": null,
    "address": null,
    "popularity": 0.5
  },
  {
    "id": "468f11563872",
    "name": "Selfoss",
    "lat": 65.8070846,
    "lng": -16.3874791,
    "category": "viewpoint",
    "region": "East",
    "rating": null,
    "description": null,
    "thumbnail": null,
    "website": null,
    "wikipedia": null,
    "phone": null,
    "opening_hours": null,
    "opening_hours_raw": null,
    "cuisine": null,
    "stars": null,
    "email": null,
    "address": null,
    "popularity": 0.5
  },
  {
    "id": "538dafada0ea",
    "name": "Hafragilsfoss",
    "lat": 65.8367739,
    "lng": -16.4039063,
    "category": "viewpoint",
    "region": "East",
    "rating": null,
    "description": null,
    "thumbnail": null,
    "website": null,
    "wikipedia": null,
    "phone": null,
    "opening_hours": null,
    "opening_hours_raw": null,
    "cuisine": null,
    "stars": null,
    "email": null,
    "address": null,
    "popularity": 0.5
  },
  {
    "id": "8253fce1b942",
    "name": "Hafragilsfoss",
    "lat": 65.8361292,
    "lng": -16.4010124,
    "category": "viewpoint",
    "region": "East",
    "rating": null,
    "description": null,
    "thumbnail": null,
    "website": null,
    "wikipedia": null,
    "phone": null,
    "opening_hours": null,
    "opening_hours_raw": null,
    "cuisine": null,
    "stars": null,
    "email": null,
    "address": null,
    "popularity": 0.5
  },
  {
    "id": "5ea0b2aaae77",
    "name": "Laki",
    "lat": 64.070189,
    "lng": -18.2363084,
    "category": "viewpoint",
    "region": "Other",
    "rating": null,
    "description": null,
    "thumbnail": null,
    "website": null,
    "wikipedia": "en:Laki",
    "phone": null,
    "opening_hours": null,
    "opening_hours_raw": null,
    "cuisine": null,
    "stars": null,
    "email": null,
    "address": null,
    "popularity": 0.5
  },
  {
    "id": "95ea3054d78a",
    "name": "Utsynisstaður",
    "lat": 65.9985055,
    "lng": -16.5169235,
    "category": "viewpoint",
    "region": "East",
    "rating": null,
    "description": null,
    "thumbnail": null,
    "website": null,
    "wikipedia": null,
    "phone": null,
    "opening_hours": null,
    "opening_hours_raw": null,
    "cuisine": null,
    "stars": null,
    "email": null,
    "address": null,
    "popularity": 0.5
  },
  {
    "id": "ead41a0bf491",
    "name": "Selfoss",
    "lat": 65.8052537,
    "lng": -16.3863681,
    "category": "viewpoint",
    "region": "East",
    "rating": null,
    "description": null,
    "thumbnail": null,
    "website": null,
    "wikipedia": null,
    "phone": null,
    "opening_hours": null,
    "opening_hours_raw": null,
    "cuisine": null,
    "stars": null,
    "email": null,
    "address": null,
    "popularity": 0.5
  },
  {
    "id": "ea9b3cb7a36d",
    "name": "Brúarárskörð",
    "lat": 64.3296538,
    "lng": -20.5383335,
    "category": "viewpoint",
    "region": "West",
    "rating": null,
    "description": null,
    "thumbnail": null,
    "website": null,
    "wikipedia": null,
    "phone": null,
    "opening_hours": null,
    "opening_hours_raw": null,
    "cuisine": null,
    "stars": null,
    "email": null,
    "address": null,
    "popularity": 0.5
  },
  {
    "id": "78384455c8b3",
    "name": "Glymur",
    "lat": 64.3879809,
    "lng": -21.255283,
    "category": "viewpoint",
    "region": "Capital Region",
    "rating": null,
    "description": null,
    "thumbnail": null,
    "website": null,
    "wikipedia": null,
    "phone": null,
    "opening_hours": null,
    "opening_hours_raw": null,
    "cuisine": null,
    "stars": null,
    "email": null,
    "address": null,
    "popularity": 0.5
  },
  {
    "id": "39af68f5f222",
    "name": "Gullfoss",
    "lat": 64.3276361,
    "lng": -20.1215374,
    "category": "viewpoint",
    "region": "Other",
    "rating": null,
    "description": null,
    "thumbnail": null,
    "website": null,
    "wikipedia": null,
    "phone": null,
    "opening_hours": null,
    "opening_hours_raw": null,
    "cuisine": null,
    "stars": null,
    "email": null,
    "address": null,
    "popularity": 0.5
  },
  {
    "id": "4004e485198c",
    "name": "Ásbyrgi",
    "lat": 66.0123752,
    "lng": -16.5047111,
    "category": "viewpoint",
    "region": "East",
    "rating": null,
    "description": null,
    "thumbnail": null,
    "website": null,
    "wikipedia": null,
    "phone": null,
    "opening_hours": null,
    "opening_hours_raw": null,
    "cuisine": null,
    "stars": null,
    "email": null,
    "address": null,
    "popularity": 0.5
  },
  {
    "id": "251c281839e3",
    "name": "Ingólfshöfði",
    "lat": 63.8005954,
    "lng": -16.6465526,
    "category": "viewpoint",
    "region": "Southeast",
    "rating": null,
    "description": null,
    "thumbnail": null,
    "website": null,
    "wikipedia": null,
    "phone": null,
    "opening_hours": null,
    "opening_hours_raw": null,
    "cuisine": null,
    "stars": null,
    "email": null,
    "address": null,
    "popularity": 0.5
  },
  {
    "id": "6ec9f00dfdc3",
    "name": "Frostastaðavatn",
    "lat": 64.0131802,
    "lng": -19.0464226,
    "category": "viewpoint",
    "region": "South",
    "rating": null,
    "description": null,
    "thumbnail": null,
    "website": null,
    "wikipedia": null,
    "phone": null,
    "opening_hours": null,
    "opening_hours_raw": null,
    "cuisine": null,
    "stars": null,
    "email": null,
    "address": null,
    "popularity": 0.5
  },
  {
    "id": "bfa1afb6e210",
    "name": "Vestrahorn",
    "lat": 64.2836923,
    "lng": -15.0357177,
    "category": "viewpoint",
    "region": "East",
    "rating": null,
    "description": null,
    "thumbnail": null,
    "website": null,
    "wikipedia": null,
    "phone": null,
    "opening_hours": null,
    "opening_hours_raw": null,
    "cuisine": null,
    "stars": null,
    "email": null,
    "address": null,
    "popularity": 0.5
  },
  {
    "id": "8f34af205efd",
    "name": "Illugastaðir",
    "lat": 65.606851,
    "lng": -20.8900859,
    "category": "viewpoint",
    "region": "Northwest",
    "rating": null,
    "description": null,
    "thumbnail": null,
    "website": null,
    "wikipedia": null,
    "phone": null,
    "opening_hours": null,
    "opening_hours_raw": null,
    "cuisine": null,
    "stars": null,
    "email": null,
    "address": null,
    "popularity": 0.5
  },
  {
    "id": "3f0dbd2f3c93",
    "name": "Goðafoss Waterfall",
    "lat": 65.6837396,
    "lng": -17.5494218,
    "category": "viewpoint",
    "region": "East",
    "rating": null,
    "description": null,
    "thumbnail": null,
    "website": null,
    "wikipedia": null,
    "phone": null,
    "opening_hours": null,
    "opening_hours_raw": null,
    "cuisine": null,
    "stars": null,
    "email": null,
    "address": null,
    "popularity": 0.5
  },
  {
    "id": "53ba11206c84",
    "name": "Ófærufoss",
    "lat": 63.9642415,
    "lng": -18.6170511,
    "category": "viewpoint",
    "region": "Southeast",
    "rating": null,
    "description": null,
    "thumbnail": null,
    "website": null,
    "wikipedia": null,
    "phone": null,
    "opening_hours": null,
    "opening_hours_raw": null,
    "cuisine": null,
    "stars": null,
    "email": null,
    "address": null,
    "popularity": 0.5
  },
  {
    "id": "b5bd00d70f15",
    "name": "Shield volcano",
    "lat": 64.8144466,
    "lng": -19.5695793,
    "category": "viewpoint",
    "region": "Other",
    "rating": null,
    "description": null,
    "thumbnail": null,
    "website": null,
    "wikipedia": null,
    "phone": null,
    "opening_hours": null,
    "opening_hours_raw": null,
    "cuisine": null,
    "stars": null,
    "email": null,
    "address": null,
    "popularity": 0.5
  },
  {
    "id": "d1bbd834ace8",
    "name": "Point of View",
    "lat": 65.6665267,
    "lng": -18.0887515,
    "category": "viewpoint",
    "region": "North",
    "rating": null,
    "description": null,
    "thumbnail": null,
    "website": null,
    "wikipedia": null,
    "phone": null,
    "opening_hours": null,
    "opening_hours_raw": null,
    "cuisine": null,
    "stars": null,
    "email": null,
    "address": null,
    "popularity": 0.5
  },
  {
    "id": "199e0286b4ac",
    "name": "Aldeyjarfoss",
    "lat": 65.3660611,
    "lng": -17.3383632,
    "category": "viewpoint",
    "region": "East",
    "rating": null,
    "description": null,
    "thumbnail": null,
    "website": null,
    "wikipedia": null,
    "phone": null,
    "opening_hours": null,
    "opening_hours_raw": null,
    "cuisine": null,
    "stars": null,
    "email": null,
    "address": null,
    "popularity": 0.5
  },
  {
    "id": "6c70ae875287",
    "name": "Hraunfossar",
    "lat": 64.7022302,
    "lng": -20.9779971,
    "category": "viewpoint",
    "region": "Northwest",
    "rating": null,
    "description": null,
    "thumbnail": null,
    "website": null,
    "wikipedia": null,
    "phone": null,
    "opening_hours": null,
    "opening_hours_raw": null,
    "cuisine": null,
    "stars": null,
    "email": null,
    "address": null,
    "popularity": 0.5
  },
  {
    "id": "541824801c23",
    "name": "Barnafoss",
    "lat": 64.7016558,
    "lng": -20.9739738,
    "category": "viewpoint",
    "region": "Northwest",
    "rating": null,
    "description": null,
    "thumbnail": null,
    "website": null,
    "wikipedia": null,
    "phone": null,
    "opening_hours": null,
    "opening_hours_raw": null,
    "cuisine": null,
    "stars": null,
    "email": null,
    "address": null,
    "popularity": 0.5
  },
  {
    "id": "b5bcddbdd865",
    "name": "Hringsbjarg",
    "lat": 66.1374137,
    "lng": -16.9496762,
    "category": "viewpoint",
    "region": "East",
    "rating": null,
    "description": null,
    "thumbnail": null,
    "website": null,
    "wikipedia": null,
    "phone": null,
    "opening_hours": null,
    "opening_hours_raw": null,
    "cuisine": null,
    "stars": null,
    "email": null,
    "address": null,
    "popularity": 0.5
  },
  {
    "id": "2bd3ab713c0e",
    "name": "Þingvellir",
    "lat": 64.2554098,
    "lng": -21.128043,
    "category": "viewpoint",
    "region": "Capital Region",
    "rating": null,
    "description": null,
    "thumbnail": null,
    "website": null,
    "wikipedia": null,
    "phone": null,
    "opening_hours": null,
    "opening_hours_raw": null,
    "cuisine": null,
    "stars": null,
    "email": null,
    "address": null,
    "popularity": 0.5
  },
  {
    "id": "4a23b6deaffd",
    "name": "Hjálparfoss",
    "lat": 64.1152742,
    "lng": -19.8515236,
    "category": "viewpoint",
    "region": "South",
    "rating": null,
    "description": null,
    "thumbnail": null,
    "website": null,
    "wikipedia": null,
    "phone": null,
    "opening_hours": null,
    "opening_hours_raw": null,
    "cuisine": null,
    "stars": null,
    "email": null,
    "address": null,
    "popularity": 0.5
  },
  {
    "id": "e0915b81c758",
    "name": "Öxarárfoss",
    "lat": 64.2657417,
    "lng": -21.1172252,
    "category": "viewpoint",
    "region": "Capital Region",
    "rating": null,
    "description": null,
    "thumbnail": null,
    "website": null,
    "wikipedia": null,
    "phone": null,
    "opening_hours": null,
    "opening_hours_raw": null,
    "cuisine": null,
    "stars": null,
    "email": null,
    "address": null,
    "popularity": 0.5
  },
  {
    "id": "5cb1a3a4096c",
    "name": "Dettifoss",
    "lat": 65.8146912,
    "lng": -16.3859035,
    "category": "viewpoint",
    "region": "East",
    "rating": null,
    "description": null,
    "thumbnail": null,
    "website": null,
    "wikipedia": null,
    "phone": null,
    "opening_hours": null,
    "opening_hours_raw": null,
    "cuisine": null,
    "stars": null,
    "email": null,
    "address": null,
    "popularity": 0.5
  },
  {
    "id": "b536849f0d48",
    "name": "Hamarinn",
    "lat": 64.065877,
    "lng": -21.9502503,
    "category": "viewpoint",
    "region": "Capital Region",
    "rating": null,
    "description": null,
    "thumbnail": null,
    "website": null,
    "wikipedia": null,
    "phone": null,
    "opening_hours": null,
    "opening_hours_raw": null,
    "cuisine": null,
    "stars": null,
    "email": null,
    "address": null,
    "popularity": 0.5
  },
  {
    "id": "d6e346e8938e",
    "name": "Ásfjall",
    "lat": 64.051375,
    "lng": -21.9430083,
    "category": "viewpoint",
    "region": "Capital Region",
    "rating": null,
    "description": null,
    "thumbnail": null,
    "website": null,
    "wikipedia": null,
    "phone": null,
    "opening_hours": null,
    "opening_hours_raw": null,
    "cuisine": null,
    "stars": null,
    "email": null,
    "address": null,
    "popularity": 0.5
  },
  {
    "id": "44a37535b3b2",
    "name": "Búðafoss",
    "lat": 64.0163826,
    "lng": -20.2727842,
    "category": "viewpoint",
    "region": "South",
    "rating": null,
    "description": null,
    "thumbnail": null,
    "website": null,
    "wikipedia": null,
    "phone": null,
    "opening_hours": null,
    "opening_hours_raw": null,
    "cuisine": null,
    "stars": null,
    "email": null,
    "address": null,
    "popularity": 0.5
  },
  {
    "id": "ceacc01f1bfa",
    "name": "Gullþúfa",
    "lat": 65.1658281,
    "lng": -13.5144699,
    "category": "viewpoint",
    "region": "East",
    "rating": null,
    "description": null,
    "thumbnail": null,
    "website": null,
    "wikipedia": null,
    "phone": null,
    "opening_hours": null,
    "opening_hours_raw": null,
    "cuisine": null,
    "stars": null,
    "email": null,
    "address": null,
    "popularity": 0.5
  },
  {
    "id": "2b6f05e5b98a",
    "name": "Glanni",
    "lat": 64.7538728,
    "lng": -21.5474293,
    "category": "viewpoint",
    "region": "Northwest",
    "rating": null,
    "description": null,
    "thumbnail": null,
    "website": null,
    "wikipedia": null,
    "phone": null,
    "opening_hours": null,
    "opening_hours_raw": null,
    "cuisine": null,
    "stars": null,
    "email": null,
    "address": null,
    "popularity": 0.5
  },
  {
    "id": "fe6bee68ad4d",
    "name": "Glanni",
    "lat": 64.7537105,
    "lng": -21.5477769,
    "category": "viewpoint",
    "region": "Northwest",
    "rating": null,
    "description": null,
    "thumbnail": null,
    "website": null,
    "wikipedia": null,
    "phone": null,
    "opening_hours": null,
    "opening_hours_raw": null,
    "cuisine": null,
    "stars": null,
    "email": null,
    "address": null,
    "popularity": 0.5
  },
  {
    "id": "916ad63b2f08",
    "name": "Gagnheiði",
    "lat": 65.4861667,
    "lng": -13.7116667,
    "category": "viewpoint",
    "region": "East",
    "rating": null,
    "description": null,
    "thumbnail": null,
    "website": null,
    "wikipedia": null,
    "phone": null,
    "opening_hours": null,
    "opening_hours_raw": null,
    "cuisine": null,
    "stars": null,
    "email": null,
    "address": null,
    "popularity": 0.5
  },
  {
    "id": "01f79ed00b7e",
    "name": "Borgarnes",
    "lat": 65.3328264,
    "lng": -13.7232366,
    "category": "viewpoint",
    "region": "East",
    "rating": null,
    "description": null,
    "thumbnail": null,
    "website": null,
    "wikipedia": null,
    "phone": null,
    "opening_hours": null,
    "opening_hours_raw": null,
    "cuisine": null,
    "stars": null,
    "email": null,
    "address": null,
    "popularity": 0.5
  },
  {
    "id": "e41289c34ace",
    "name": "Geldingafjall",
    "lat": 65.5515137,
    "lng": -14.0028719,
    "category": "viewpoint",
    "region": "East",
    "rating": null,
    "description": null,
    "thumbnail": null,
    "website": null,
    "wikipedia": null,
    "phone": null,
    "opening_hours": null,
    "opening_hours_raw": null,
    "cuisine": null,
    "stars": null,
    "email": null,
    "address": null,
    "popularity": 0.5
  },
  {
    "id": "cbe022d5d67b",
    "name": "Glanni",
    "lat": 64.7534745,
    "lng": -21.5480938,
    "category": "viewpoint",
    "region": "Northwest",
    "rating": null,
    "description": null,
    "thumbnail": null,
    "website": null,
    "wikipedia": null,
    "phone": null,
    "opening_hours": null,
    "opening_hours_raw": null,
    "cuisine": null,
    "stars": null,
    "email": null,
    "address": null,
    "popularity": 0.5
  },
  {
    "id": "52ea7f14c118",
    "name": "Svartifoss",
    "lat": 64.0273662,
    "lng": -16.9750037,
    "category": "viewpoint",
    "region": "East",
    "rating": null,
    "description": null,
    "thumbnail": null,
    "website": null,
    "wikipedia": null,
    "phone": null,
    "opening_hours": null,
    "opening_hours_raw": null,
    "cuisine": null,
    "stars": null,
    "email": null,
    "address": null,
    "popularity": 0.5
  },
  {
    "id": "01fe49430fdd",
    "name": "Kirkjufjara",
    "lat": 63.4027258,
    "lng": -19.1050512,
    "category": "viewpoint",
    "region": "Other",
    "rating": null,
    "description": null,
    "thumbnail": null,
    "website": null,
    "wikipedia": null,
    "phone": null,
    "opening_hours": null,
    "opening_hours_raw": null,
    "cuisine": null,
    "stars": null,
    "email": null,
    "address": null,
    "popularity": 0.5
  },
  {
    "id": "99202e924dff",
    "name": "Seal Watching",
    "lat": 64.802765,
    "lng": -23.0800411,
    "category": "viewpoint",
    "region": "Northwest",
    "rating": null,
    "description": null,
    "thumbnail": null,
    "website": null,
    "wikipedia": null,
    "phone": null,
    "opening_hours": null,
    "opening_hours_raw": null,
    "cuisine": null,
    "stars": null,
    "email": null,
    "address": null,
    "popularity": 0.5
  },
  {
    "id": "598425e71c04",
    "name": "Hvítserkur",
    "lat": 65.6058981,
    "lng": -20.636628,
    "category": "viewpoint",
    "region": "Northwest",
    "rating": null,
    "description": null,
    "thumbnail": null,
    "website": null,
    "wikipedia": null,
    "phone": null,
    "opening_hours": null,
    "opening_hours_raw": null,
    "cuisine": null,
    "stars": null,
    "email": null,
    "address": null,
    "popularity": 0.5
  },
  {
    "id": "465e4eeba8a4",
    "name": "Kirkjan",
    "lat": 65.938346,
    "lng": -16.5341827,
    "category": "viewpoint",
    "region": "East",
    "rating": null,
    "description": null,
    "thumbnail": null,
    "website": null,
    "wikipedia": null,
    "phone": null,
    "opening_hours": null,
    "opening_hours_raw": null,
    "cuisine": null,
    "stars": null,
    "email": null,
    "address": null,
    "popularity": 0.5
  },
  {
    "id": "fbc6cfef7ad9",
    "name": "Skessugarður",
    "lat": 65.2839219,
    "lng": -15.5760411,
    "category": "viewpoint",
    "region": "East",
    "rating": null,
    "description": null,
    "thumbnail": null,
    "website": null,
    "wikipedia": null,
    "phone": null,
    "opening_hours": null,
    "opening_hours_raw": null,
    "cuisine": null,
    "stars": null,
    "email": null,
    "address": null,
    "popularity": 0.5
  },
  {
    "id": "9313a0767e62",
    "name": "Gljufurarfoss",
    "lat": 65.7465009,
    "lng": -14.6740226,
    "category": "viewpoint",
    "region": "East",
    "rating": null,
    "description": null,
    "thumbnail": null,
    "website": null,
    "wikipedia": null,
    "phone": null,
    "opening_hours": null,
    "opening_hours_raw": null,
    "cuisine": null,
    "stars": null,
    "email": null,
    "address": null,
    "popularity": 0.5
  },
  {
    "id": "907b8df3bd9e",
    "name": "Gullfoss Viewing Platform",
    "lat": 64.3261905,
    "lng": -20.1244089,
    "category": "viewpoint",
    "region": "Other",
    "rating": null,
    "description": "Panorama of Gullfoss waterfall",
    "thumbnail": null,
    "website": null,
    "wikipedia": null,
    "phone": null,
    "opening_hours": null,
    "opening_hours_raw": null,
    "cuisine": null,
    "stars": null,
    "email": null,
    "address": null,
    "popularity": 0.5
  },
  {
    "id": "1e9049079a80",
    "name": "Jökulsárlón",
    "lat": 64.0529108,
    "lng": -16.1780203,
    "category": "viewpoint",
    "region": "East",
    "rating": null,
    "description": null,
    "thumbnail": null,
    "website": null,
    "wikipedia": null,
    "phone": null,
    "opening_hours": null,
    "opening_hours_raw": null,
    "cuisine": null,
    "stars": null,
    "email": null,
    "address": null,
    "popularity": 0.5
  },
  {
    "id": "cb9a3313cf0d",
    "name": "Lakigígar",
    "lat": 64.0701994,
    "lng": -18.2362533,
    "category": "viewpoint",
    "region": "Other",
    "rating": null,
    "description": null,
    "thumbnail": null,
    "website": null,
    "wikipedia": null,
    "phone": null,
    "opening_hours": null,
    "opening_hours_raw": null,
    "cuisine": null,
    "stars": null,
    "email": null,
    "address": null,
    "popularity": 0.5
  },
  {
    "id": "451df604dd0f",
    "name": "Borgarvarða",
    "lat": 65.711647,
    "lng": -21.67577,
    "category": "viewpoint",
    "region": "Northwest",
    "rating": null,
    "description": null,
    "thumbnail": null,
    "website": null,
    "wikipedia": null,
    "phone": null,
    "opening_hours": null,
    "opening_hours_raw": null,
    "cuisine": null,
    "stars": null,
    "email": null,
    "address": null,
    "popularity": 0.5
  },
  {
    "id": "6726ab272c51",
    "name": "Útsýnisskífa",
    "lat": 64.1105586,
    "lng": -21.8821313,
    "category": "viewpoint",
    "region": "Capital Region",
    "rating": null,
    "description": null,
    "thumbnail": null,
    "website": null,
    "wikipedia": null,
    "phone": null,
    "opening_hours": null,
    "opening_hours_raw": null,
    "cuisine": null,
    "stars": null,
    "email": null,
    "address": null,
    "popularity": 0.5
  },
  {
    "id": "6aadf9b4450c",
    "name": "Hringsjá og eyktir",
    "lat": 64.0854883,
    "lng": -21.8594333,
    "category": "viewpoint",
    "region": "Capital Region",
    "rating": null,
    "description": null,
    "thumbnail": null,
    "website": null,
    "wikipedia": null,
    "phone": null,
    "opening_hours": null,
    "opening_hours_raw": null,
    "cuisine": null,
    "stars": null,
    "email": null,
    "address": null,
    "popularity": 0.5
  },
  {
    "id": "cbd2a8538c00",
    "name": "Kirkjufell",
    "lat": 64.9220918,
    "lng": -23.2856038,
    "category": "viewpoint",
    "region": "Northwest",
    "rating": null,
    "description": null,
    "thumbnail": null,
    "website": null,
    "wikipedia": null,
    "phone": null,
    "opening_hours": null,
    "opening_hours_raw": null,
    "cuisine": null,
    "stars": null,
    "email": null,
    "address": null,
    "popularity": 0.5
  },
  {
    "id": "84b9d2dbbd41",
    "name": "Eskey",
    "lat": 64.263656,
    "lng": -15.516193,
    "category": "viewpoint",
    "region": "East",
    "rating": null,
    "description": null,
    "thumbnail": null,
    "website": null,
    "wikipedia": null,
    "phone": null,
    "opening_hours": null,
    "opening_hours_raw": null,
    "cuisine": null,
    "stars": null,
    "email": null,
    "address": null,
    "popularity": 0.5
  },
  {
    "id": "3bc97f13f194",
    "name": "Urriðafoss",
    "lat": 63.9237684,
    "lng": -20.6735657,
    "category": "viewpoint",
    "region": "South",
    "rating": null,
    "description": null,
    "thumbnail": null,
    "website": null,
    "wikipedia": null,
    "phone": null,
    "opening_hours": null,
    "opening_hours_raw": null,
    "cuisine": null,
    "stars": null,
    "email": null,
    "address": null,
    "popularity": 0.5
  },
  {
    "id": "9cdad12834f2",
    "name": "Brimketill",
    "lat": 63.8193481,
    "lng": -22.6060464,
    "category": "viewpoint",
    "region": "Other",
    "rating": null,
    "description": null,
    "thumbnail": null,
    "website": null,
    "wikipedia": null,
    "phone": null,
    "opening_hours": null,
    "opening_hours_raw": null,
    "cuisine": null,
    "stars": null,
    "email": null,
    "address": null,
    "popularity": 0.5
  },
  {
    "id": "7a07a76509b3",
    "name": "Hafragilsfoss",
    "lat": 65.8324972,
    "lng": -16.4016039,
    "category": "viewpoint",
    "region": "East",
    "rating": null,
    "description": null,
    "thumbnail": null,
    "website": null,
    "wikipedia": null,
    "phone": null,
    "opening_hours": null,
    "opening_hours_raw": null,
    "cuisine": null,
    "stars": null,
    "email": null,
    "address": null,
    "popularity": 0.5
  },
  {
    "id": "0cbc259363ee",
    "name": "Hafragilsfoss",
    "lat": 65.8315149,
    "lng": -16.4009862,
    "category": "viewpoint",
    "region": "East",
    "rating": null,
    "description": null,
    "thumbnail": null,
    "website": null,
    "wikipedia": null,
    "phone": null,
    "opening_hours": null,
    "opening_hours_raw": null,
    "cuisine": null,
    "stars": null,
    "email": null,
    "address": null,
    "popularity": 0.5
  },
  {
    "id": "fa53fb577a16",
    "name": "Gatklettur",
    "lat": 64.7655193,
    "lng": -23.6218889,
    "category": "viewpoint",
    "region": "Northwest",
    "rating": null,
    "description": null,
    "thumbnail": null,
    "website": null,
    "wikipedia": null,
    "phone": null,
    "opening_hours": null,
    "opening_hours_raw": null,
    "cuisine": null,
    "stars": null,
    "email": null,
    "address": null,
    "popularity": 0.5
  },
  {
    "id": "25a7a707c9eb",
    "name": "Háifoss",
    "lat": 64.205251,
    "lng": -19.6854634,
    "category": "viewpoint",
    "region": "Other",
    "rating": null,
    "description": null,
    "thumbnail": null,
    "website": null,
    "wikipedia": null,
    "phone": null,
    "opening_hours": null,
    "opening_hours_raw": null,
    "cuisine": null,
    "stars": null,
    "email": null,
    "address": null,
    "popularity": 0.5
  },
  {
    "id": "f0e391498297",
    "name": "Holuhraun Lava field",
    "lat": 64.9212684,
    "lng": -16.7213745,
    "category": "viewpoint",
    "region": "East",
    "rating": null,
    "description": null,
    "thumbnail": null,
    "website": null,
    "wikipedia": null,
    "phone": null,
    "opening_hours": null,
    "opening_hours_raw": null,
    "cuisine": null,
    "stars": null,
    "email": null,
    "address": null,
    "popularity": 0.5
  },
  {
    "id": "46410468749a",
    "name": "Seal watching",
    "lat": 65.5840082,
    "lng": -20.921917,
    "category": "viewpoint",
    "region": "Northwest",
    "rating": null,
    "description": null,
    "thumbnail": null,
    "website": null,
    "wikipedia": null,
    "phone": null,
    "opening_hours": null,
    "opening_hours_raw": null,
    "cuisine": null,
    "stars": null,
    "email": null,
    "address": null,
    "popularity": 0.5
  },
  {
    "id": "b513dddd21f0",
    "name": "Gjáin í Þjórsárdal",
    "lat": 64.1491791,
    "lng": -19.7364119,
    "category": "viewpoint",
    "region": "South",
    "rating": null,
    "description": null,
    "thumbnail": null,
    "website": null,
    "wikipedia": null,
    "phone": null,
    "opening_hours": null,
    "opening_hours_raw": null,
    "cuisine": null,
    "stars": null,
    "email": null,
    "address": null,
    "popularity": 0.5
  },
  {
    "id": "9fa7fc0a9f54",
    "name": "Magnúsarfoss",
    "lat": 64.0212353,
    "lng": -16.9794763,
    "category": "viewpoint",
    "region": "East",
    "rating": null,
    "description": null,
    "thumbnail": null,
    "website": null,
    "wikipedia": null,
    "phone": null,
    "opening_hours": null,
    "opening_hours_raw": null,
    "cuisine": null,
    "stars": null,
    "email": null,
    "address": null,
    "popularity": 0.5
  },
  {
    "id": "6faa68f1d82e",
    "name": "Holuhraun Lava field",
    "lat": 64.9331837,
    "lng": -16.5146516,
    "category": "viewpoint",
    "region": "East",
    "rating": null,
    "description": null,
    "thumbnail": null,
    "website": null,
    "wikipedia": null,
    "phone": null,
    "opening_hours": null,
    "opening_hours_raw": null,
    "cuisine": null,
    "stars": null,
    "email": null,
    "address": null,
    "popularity": 0.5
  },
  {
    "id": "47376f178a5d",
    "name": "Bird watching",
    "lat": 64.1740209,
    "lng": -21.7254746,
    "category": "viewpoint",
    "region": "Capital Region",
    "rating": null,
    "description": null,
    "thumbnail": null,
    "website": null,
    "wikipedia": null,
    "phone": null,
    "opening_hours": null,
    "opening_hours_raw": null,
    "cuisine": null,
    "stars": null,
    "email": null,
    "address": null,
    "popularity": 0.5
  },
  {
    "id": "b4d19025f729",
    "name": "Kirkjufellsfoss",
    "lat": 64.927157,
    "lng": -23.3073765,
    "category": "viewpoint",
    "region": "Northwest",
    "rating": null,
    "description": null,
    "thumbnail": null,
    "website": null,
    "wikipedia": null,
    "phone": null,
    "opening_hours": null,
    "opening_hours_raw": null,
    "cuisine": null,
    "stars": null,
    "email": null,
    "address": null,
    "popularity": 0.5
  },
  {
    "id": "7b28243394a2",
    "name": "Waterfall",
    "lat": 63.8628173,
    "lng": -19.7573233,
    "category": "viewpoint",
    "region": "South",
    "rating": null,
    "description": null,
    "thumbnail": null,
    "website": null,
    "wikipedia": null,
    "phone": null,
    "opening_hours": null,
    "opening_hours_raw": null,
    "cuisine": null,
    "stars": null,
    "email": null,
    "address": null,
    "popularity": 0.5
  },
  {
    "id": "f3fe2e16ec0f",
    "name": "Selaskoðun",
    "lat": 65.5968999,
    "lng": -20.6185278,
    "category": "viewpoint",
    "region": "Northwest",
    "rating": null,
    "description": null,
    "thumbnail": null,
    "website": null,
    "wikipedia": null,
    "phone": null,
    "opening_hours": null,
    "opening_hours_raw": null,
    "cuisine": null,
    "stars": null,
    "email": null,
    "address": null,
    "popularity": 0.5
  },
  {
    "id": "b36c145d1ea6",
    "name": "Sólheimajökull",
    "lat": 63.5344183,
    "lng": -19.3569833,
    "category": "viewpoint",
    "region": "Other",
    "rating": null,
    "description": null,
    "thumbnail": null,
    "website": null,
    "wikipedia": null,
    "phone": null,
    "opening_hours": null,
    "opening_hours_raw": null,
    "cuisine": null,
    "stars": null,
    "email": null,
    "address": null,
    "popularity": 0.5
  },
  {
    "id": "6f75dcf36b4f",
    "name": "Upptyppingar",
    "lat": 64.9201521,
    "lng": -16.3948315,
    "category": "viewpoint",
    "region": "East",
    "rating": null,
    "description": null,
    "thumbnail": null,
    "website": null,
    "wikipedia": null,
    "phone": null,
    "opening_hours": null,
    "opening_hours_raw": null,
    "cuisine": null,
    "stars": null,
    "email": null,
    "address": null,
    "popularity": 0.5
  },
  {
    "id": "15cdc049b305",
    "name": "Flakkarinn",
    "lat": 63.4451082,
    "lng": -20.2530782,
    "category": "viewpoint",
    "region": "Other",
    "rating": null,
    "description": null,
    "thumbnail": null,
    "website": null,
    "wikipedia": null,
    "phone": null,
    "opening_hours": null,
    "opening_hours_raw": null,
    "cuisine": null,
    "stars": null,
    "email": null,
    "address": null,
    "popularity": 0.5
  },
  {
    "id": "248d5be67cfb",
    "name": "Hornstrandir crest",
    "lat": 66.4494591,
    "lng": -22.4303249,
    "category": "viewpoint",
    "region": "Westfjords",
    "rating": null,
    "description": null,
    "thumbnail": null,
    "website": null,
    "wikipedia": null,
    "phone": null,
    "opening_hours": null,
    "opening_hours_raw": null,
    "cuisine": null,
    "stars": null,
    "email": null,
    "address": null,
    "popularity": 0.5
  },
  {
    "id": "bc5e477035e8",
    "name": "Selfoss",
    "lat": 65.8080846,
    "lng": -16.3901547,
    "category": "viewpoint",
    "region": "East",
    "rating": null,
    "description": null,
    "thumbnail": null,
    "website": null,
    "wikipedia": null,
    "phone": null,
    "opening_hours": null,
    "opening_hours_raw": null,
    "cuisine": null,
    "stars": null,
    "email": null,
    "address": null,
    "popularity": 0.5
  },
  {
    "id": "5518f40add54",
    "name": "Járnkarlinn",
    "lat": 66.386264,
    "lng": -14.8527858,
    "category": "viewpoint",
    "region": "East",
    "rating": null,
    "description": null,
    "thumbnail": null,
    "website": null,
    "wikipedia": null,
    "phone": null,
    "opening_hours": null,
    "opening_hours_raw": null,
    "cuisine": null,
    "stars": null,
    "email": null,
    "address": null,
    "popularity": 0.5
  },
  {
    "id": "b015a2460868",
    "name": "Sigöldugljúfur",
    "lat": 64.1577753,
    "lng": -19.1233678,
    "category": "viewpoint",
    "region": "South",
    "rating": null,
    "description": null,
    "thumbnail": null,
    "website": null,
    "wikipedia": null,
    "phone": null,
    "opening_hours": null,
    "opening_hours_raw": null,
    "cuisine": null,
    "stars": null,
    "email": null,
    "address": null,
    "popularity": 0.5
  },
  {
    "id": "26d9d9324d83",
    "name": "Staðarfell",
    "lat": 65.1339085,
    "lng": -22.2735655,
    "category": "viewpoint",
    "region": "Northwest",
    "rating": null,
    "description": null,
    "thumbnail": null,
    "website": null,
    "wikipedia": null,
    "phone": null,
    "opening_hours": null,
    "opening_hours_raw": null,
    "cuisine": null,
    "stars": null,
    "email": null,
    "address": null,
    "popularity": 0.5
  },
  {
    "id": "c97008ebd810",
    "name": "Hornbjarg",
    "lat": 66.4605363,
    "lng": -22.4418077,
    "category": "viewpoint",
    "region": "Westfjords",
    "rating": null,
    "description": null,
    "thumbnail": null,
    "website": null,
    "wikipedia": null,
    "phone": null,
    "opening_hours": null,
    "opening_hours_raw": null,
    "cuisine": null,
    "stars": null,
    "email": null,
    "address": null,
    "popularity": 0.5
  },
  {
    "id": "eca40445d4d2",
    "name": "Skaftáreldahraun",
    "lat": 63.7458029,
    "lng": -18.1595702,
    "category": "viewpoint",
    "region": "Southeast",
    "rating": null,
    "description": null,
    "thumbnail": null,
    "website": null,
    "wikipedia": null,
    "phone": null,
    "opening_hours": null,
    "opening_hours_raw": null,
    "cuisine": null,
    "stars": null,
    "email": null,
    "address": null,
    "popularity": 0.5
  },
  {
    "id": "8982ada51cb3",
    "name": "Keilir",
    "lat": 63.9412473,
    "lng": -22.1722694,
    "category": "viewpoint",
    "region": "Other",
    "rating": null,
    "description": null,
    "thumbnail": null,
    "website": null,
    "wikipedia": null,
    "phone": null,
    "opening_hours": null,
    "opening_hours_raw": null,
    "cuisine": null,
    "stars": null,
    "email": null,
    "address": null,
    "popularity": 0.5
  },
  {
    "id": "e00a18f0c466",
    "name": "Skjólfjörur",
    "lat": 65.7563581,
    "lng": -14.5794352,
    "category": "viewpoint",
    "region": "East",
    "rating": null,
    "description": null,
    "thumbnail": null,
    "website": null,
    "wikipedia": null,
    "phone": null,
    "opening_hours": null,
    "opening_hours_raw": null,
    "cuisine": null,
    "stars": null,
    "email": null,
    "address": null,
    "popularity": 0.5
  },
  {
    "id": "d0a099bad11e",
    "name": "Foss á Síðu",
    "lat": 63.8540735,
    "lng": -17.8710608,
    "category": "viewpoint",
    "region": "Southeast",
    "rating": null,
    "description": null,
    "thumbnail": null,
    "website": null,
    "wikipedia": null,
    "phone": null,
    "opening_hours": null,
    "opening_hours_raw": null,
    "cuisine": null,
    "stars": null,
    "email": null,
    "address": null,
    "popularity": 0.5
  },
  {
    "id": "f17e06d09560",
    "name": "Álftaversgígar",
    "lat": 63.5431208,
    "lng": -18.4393941,
    "category": "viewpoint",
    "region": "Southeast",
    "rating": null,
    "description": null,
    "thumbnail": null,
    "website": null,
    "wikipedia": null,
    "phone": null,
    "opening_hours": null,
    "opening_hours_raw": null,
    "cuisine": null,
    "stars": null,
    "email": null,
    "address": null,
    "popularity": 0.5
  },
  {
    "id": "3fb4cb5a3b30",
    "name": "Borgarvirki",
    "lat": 65.4748023,
    "lng": -20.5966109,
    "category": "viewpoint",
    "region": "Northwest",
    "rating": null,
    "description": null,
    "thumbnail": null,
    "website": null,
    "wikipedia": null,
    "phone": null,
    "opening_hours": null,
    "opening_hours_raw": null,
    "cuisine": null,
    "stars": null,
    "email": null,
    "address": null,
    "popularity": 0.5
  },
  {
    "id": "b7d046761712",
    "name": "Hangandifoss",
    "lat": 63.9890116,
    "lng": -16.4642914,
    "category": "viewpoint",
    "region": "Southeast",
    "rating": null,
    "description": null,
    "thumbnail": null,
    "website": null,
    "wikipedia": null,
    "phone": null,
    "opening_hours": null,
    "opening_hours_raw": null,
    "cuisine": null,
    "stars": null,
    "email": null,
    "address": null,
    "popularity": 0.5
  },
  {
    "id": "faffca70690d",
    "name": "Fotarklappir",
    "lat": 66.5657875,
    "lng": -18.0212698,
    "category": "viewpoint",
    "region": "Other",
    "rating": null,
    "description": null,
    "thumbnail": null,
    "website": null,
    "wikipedia": null,
    "phone": null,
    "opening_hours": null,
    "opening_hours_raw": null,
    "cuisine": null,
    "stars": null,
    "email": null,
    "address": null,
    "popularity": 0.5
  },
  {
    "id": "72b8a0b18a07",
    "name": "Goðafoss",
    "lat": 65.6977326,
    "lng": -17.5036179,
    "category": "viewpoint",
    "region": "East",
    "rating": null,
    "description": null,
    "thumbnail": null,
    "website": null,
    "wikipedia": null,
    "phone": null,
    "opening_hours": null,
    "opening_hours_raw": null,
    "cuisine": null,
    "stars": null,
    "email": null,
    "address": null,
    "popularity": 0.5
  },
  {
    "id": "40a07a226bd2",
    "name": "Selaskoðun",
    "lat": 65.9938225,
    "lng": -22.8154133,
    "category": "viewpoint",
    "region": "Northwest",
    "rating": null,
    "description": null,
    "thumbnail": null,
    "website": null,
    "wikipedia": null,
    "phone": null,
    "opening_hours": null,
    "opening_hours_raw": null,
    "cuisine": null,
    "stars": null,
    "email": null,
    "address": null,
    "popularity": 0.5
  },
  {
    "id": "e563f5e9dd7c",
    "name": "Skarfasker",
    "lat": 66.1194135,
    "lng": -23.1205047,
    "category": "viewpoint",
    "region": "Westfjords",
    "rating": null,
    "description": null,
    "thumbnail": null,
    "website": null,
    "wikipedia": null,
    "phone": null,
    "opening_hours": null,
    "opening_hours_raw": null,
    "cuisine": null,
    "stars": null,
    "email": null,
    "address": null,
    "popularity": 0.5
  },
  {
    "id": "1e2623a860e4",
    "name": "Bolafjall",
    "lat": 66.1791287,
    "lng": -23.3326624,
    "category": "viewpoint",
    "region": "Westfjords",
    "rating": null,
    "description": null,
    "thumbnail": null,
    "website": null,
    "wikipedia": null,
    "phone": null,
    "opening_hours": null,
    "opening_hours_raw": null,
    "cuisine": null,
    "stars": null,
    "email": null,
    "address": null,
    "popularity": 0.5
  },
  {
    "id": "91d3d518076b",
    "name": "Klappir",
    "lat": 65.9977494,
    "lng": -16.5125834,
    "category": "viewpoint",
    "region": "East",
    "rating": null,
    "description": null,
    "thumbnail": null,
    "website": null,
    "wikipedia": null,
    "phone": null,
    "opening_hours": null,
    "opening_hours_raw": null,
    "cuisine": null,
    "stars": null,
    "email": null,
    "address": null,
    "popularity": 0.5
  },
  {
    "id": "b471ad6ecd7a",
    "name": "Stuðlagil",
    "lat": 65.1632359,
    "lng": -15.3068859,
    "category": "viewpoint",
    "region": "East",
    "rating": null,
    "description": null,
    "thumbnail": null,
    "website": null,
    "wikipedia": null,
    "phone": null,
    "opening_hours": null,
    "opening_hours_raw": null,
    "cuisine": null,
    "stars": null,
    "email": null,
    "address": null,
    "popularity": 0.5
  },
  {
    "id": "9c44f1e7e5f0",
    "name": "Blahnukur",
    "lat": 63.9767974,
    "lng": -19.0692429,
    "category": "viewpoint",
    "region": "South",
    "rating": null,
    "description": null,
    "thumbnail": null,
    "website": null,
    "wikipedia": null,
    "phone": null,
    "opening_hours": null,
    "opening_hours_raw": null,
    "cuisine": null,
    "stars": null,
    "email": null,
    "address": null,
    "popularity": 0.5
  },
  {
    "id": "145e49b3df9b",
    "name": "Stuðlagil",
    "lat": 65.1635056,
    "lng": -15.3058385,
    "category": "viewpoint",
    "region": "East",
    "rating": null,
    "description": null,
    "thumbnail": null,
    "website": null,
    "wikipedia": null,
    "phone": null,
    "opening_hours": null,
    "opening_hours_raw": null,
    "cuisine": null,
    "stars": null,
    "email": null,
    "address": null,
    "popularity": 0.5
  },
  {
    "id": "042018dfc77e",
    "name": "Stuðlagil",
    "lat": 65.1625393,
    "lng": -15.3078145,
    "category": "viewpoint",
    "region": "East",
    "rating": null,
    "description": null,
    "thumbnail": null,
    "website": null,
    "wikipedia": null,
    "phone": null,
    "opening_hours": null,
    "opening_hours_raw": null,
    "cuisine": null,
    "stars": null,
    "email": null,
    "address": null,
    "popularity": 0.5
  },
  {
    "id": "db424addaa21",
    "name": "Litlanesfoss",
    "lat": 65.082055,
    "lng": -14.8833535,
    "category": "viewpoint",
    "region": "East",
    "rating": null,
    "description": null,
    "thumbnail": null,
    "website": null,
    "wikipedia": null,
    "phone": null,
    "opening_hours": null,
    "opening_hours_raw": null,
    "cuisine": null,
    "stars": null,
    "email": null,
    "address": null,
    "popularity": 0.5
  },
  {
    "id": "0045c15b2322",
    "name": "Hengifoss",
    "lat": 65.091364,
    "lng": -14.887536,
    "category": "viewpoint",
    "region": "East",
    "rating": null,
    "description": null,
    "thumbnail": null,
    "website": null,
    "wikipedia": null,
    "phone": null,
    "opening_hours": null,
    "opening_hours_raw": null,
    "cuisine": null,
    "stars": null,
    "email": null,
    "address": null,
    "popularity": 0.5
  },
  {
    "id": "10482900779c",
    "name": "Reyðarfjörður",
    "lat": 65.0135655,
    "lng": -14.20036,
    "category": "viewpoint",
    "region": "East",
    "rating": null,
    "description": null,
    "thumbnail": null,
    "website": null,
    "wikipedia": null,
    "phone": null,
    "opening_hours": null,
    "opening_hours_raw": null,
    "cuisine": null,
    "stars": null,
    "email": null,
    "address": null,
    "popularity": 0.5
  },
  {
    "id": "7cc2225b853c",
    "name": "Hrafnagjá útsynispallur",
    "lat": 64.2470305,
    "lng": -21.0257784,
    "category": "viewpoint",
    "region": "Capital Region",
    "rating": null,
    "description": null,
    "thumbnail": null,
    "website": null,
    "wikipedia": null,
    "phone": null,
    "opening_hours": null,
    "opening_hours_raw": null,
    "cuisine": null,
    "stars": null,
    "email": null,
    "address": null,
    "popularity": 0.5
  },
  {
    "id": "1fb917b6d210",
    "name": "Vatnsnes",
    "lat": 65.6754175,
    "lng": -20.6776261,
    "category": "viewpoint",
    "region": "Northwest",
    "rating": null,
    "description": null,
    "thumbnail": null,
    "website": null,
    "wikipedia": null,
    "phone": null,
    "opening_hours": null,
    "opening_hours_raw": null,
    "cuisine": null,
    "stars": null,
    "email": null,
    "address": null,
    "popularity": 0.5
  },
  {
    "id": "76ec1f5da154",
    "name": "Viewpoint C",
    "lat": 63.8883289,
    "lng": -22.2460704,
    "category": "viewpoint",
    "region": "Other",
    "rating": null,
    "description": null,
    "thumbnail": null,
    "website": null,
    "wikipedia": null,
    "phone": null,
    "opening_hours": null,
    "opening_hours_raw": null,
    "cuisine": null,
    "stars": null,
    "email": null,
    "address": null,
    "popularity": 0.5
  },
  {
    "id": "cc9642192672",
    "name": "Seal Lookout",
    "lat": 63.8353488,
    "lng": -21.706249,
    "category": "viewpoint",
    "region": "Other",
    "rating": null,
    "description": null,
    "thumbnail": null,
    "website": null,
    "wikipedia": null,
    "phone": null,
    "opening_hours": null,
    "opening_hours_raw": null,
    "cuisine": null,
    "stars": null,
    "email": null,
    "address": null,
    "popularity": 0.5
  },
  {
    "id": "0b21f6c04125",
    "name": "Rauðaskál volcano viewpoint",
    "lat": 64.0699359,
    "lng": -19.5939673,
    "category": "viewpoint",
    "region": "South",
    "rating": null,
    "description": null,
    "thumbnail": null,
    "website": null,
    "wikipedia": null,
    "phone": null,
    "opening_hours": null,
    "opening_hours_raw": null,
    "cuisine": null,
    "stars": null,
    "email": null,
    "address": null,
    "popularity": 0.5
  },
  {
    "id": "dbd606886f48",
    "name": "Hatta",
    "lat": 63.4407571,
    "lng": -19.0078729,
    "category": "viewpoint",
    "region": "Other",
    "rating": null,
    "description": null,
    "thumbnail": null,
    "website": null,
    "wikipedia": null,
    "phone": null,
    "opening_hours": null,
    "opening_hours_raw": null,
    "cuisine": null,
    "stars": null,
    "email": null,
    "address": null,
    "popularity": 0.5
  },
  {
    "id": "4e15ef3ed5f5",
    "name": "Viewpoint A",
    "lat": 63.8975749,
    "lng": -22.2567072,
    "category": "viewpoint",
    "region": "Other",
    "rating": null,
    "description": null,
    "thumbnail": null,
    "website": null,
    "wikipedia": null,
    "phone": null,
    "opening_hours": null,
    "opening_hours_raw": null,
    "cuisine": null,
    "stars": null,
    "email": null,
    "address": null,
    "popularity": 0.5
  },
  {
    "id": "62bacf77028f",
    "name": "Kirkjufell Viewpoint",
    "lat": 64.9349608,
    "lng": -23.2042861,
    "category": "viewpoint",
    "region": "Northwest",
    "rating": null,
    "description": null,
    "thumbnail": null,
    "website": null,
    "wikipedia": null,
    "phone": null,
    "opening_hours": null,
    "opening_hours_raw": null,
    "cuisine": null,
    "stars": null,
    "email": null,
    "address": null,
    "popularity": 0.5
  },
  {
    "id": "6783b4993245",
    "name": "Viewpoint N",
    "lat": 63.8633722,
    "lng": -22.2936609,
    "category": "viewpoint",
    "region": "Other",
    "rating": null,
    "description": null,
    "thumbnail": null,
    "website": null,
    "wikipedia": null,
    "phone": null,
    "opening_hours": null,
    "opening_hours_raw": null,
    "cuisine": null,
    "stars": null,
    "email": null,
    "address": null,
    "popularity": 0.5
  },
  {
    "id": "af89763c0297",
    "name": "Lower Litli Hrutur Volcano Viewpoint",
    "lat": 63.9180123,
    "lng": -22.2126702,
    "category": "viewpoint",
    "region": "Other",
    "rating": null,
    "description": null,
    "thumbnail": null,
    "website": null,
    "wikipedia": null,
    "phone": null,
    "opening_hours": null,
    "opening_hours_raw": null,
    "cuisine": null,
    "stars": null,
    "email": null,
    "address": null,
    "popularity": 0.5
  },
  {
    "id": "0841c48c875c",
    "name": "Higher Litli Hrutur Volcano Viewpoint",
    "lat": 63.9160809,
    "lng": -22.2112721,
    "category": "viewpoint",
    "region": "Other",
    "rating": null,
    "description": null,
    "thumbnail": null,
    "website": null,
    "wikipedia": null,
    "phone": null,
    "opening_hours": null,
    "opening_hours_raw": null,
    "cuisine": null,
    "stars": null,
    "email": null,
    "address": null,
    "popularity": 0.5
  },
  {
    "id": "003355e3c6e2",
    "name": "Svarta ströndin í Vík í Mýrdal",
    "lat": 63.4142817,
    "lng": -19.0103136,
    "category": "viewpoint",
    "region": "Other",
    "rating": null,
    "description": null,
    "thumbnail": null,
    "website": null,
    "wikipedia": null,
    "phone": null,
    "opening_hours": null,
    "opening_hours_raw": null,
    "cuisine": null,
    "stars": null,
    "email": null,
    "address": null,
    "popularity": 0.5
  },
  {
    "id": "b302d8b694b5",
    "name": "Gígvatn",
    "lat": 63.9372398,
    "lng": -18.6636149,
    "category": "viewpoint",
    "region": "Southeast",
    "rating": null,
    "description": null,
    "thumbnail": null,
    "website": null,
    "wikipedia": null,
    "phone": null,
    "opening_hours": null,
    "opening_hours_raw": null,
    "cuisine": null,
    "stars": null,
    "email": null,
    "address": null,
    "popularity": 0.5
  },
  {
    "id": "f411e1127008",
    "name": "Eyjafjallajökull",
    "lat": 63.5430629,
    "lng": -19.6677319,
    "category": "viewpoint",
    "region": "Other",
    "rating": null,
    "description": null,
    "thumbnail": null,
    "website": null,
    "wikipedia": null,
    "phone": null,
    "opening_hours": null,
    "opening_hours_raw": null,
    "cuisine": null,
    "stars": null,
    "email": null,
    "address": null,
    "popularity": 0.5
  },
  {
    "id": "a87175a711c2",
    "name": "Kerið",
    "lat": 64.0417168,
    "lng": -20.8831408,
    "category": "viewpoint",
    "region": "South",
    "rating": null,
    "description": null,
    "thumbnail": null,
    "website": null,
    "wikipedia": null,
    "phone": null,
    "opening_hours": null,
    "opening_hours_raw": null,
    "cuisine": null,
    "stars": null,
    "email": null,
    "address": null,
    "popularity": 0.5
  },
  {
    "id": "304513110aca",
    "name": "Bólugilsfoss",
    "lat": 65.454345,
    "lng": -19.1936256,
    "category": "viewpoint",
    "region": "Other",
    "rating": null,
    "description": null,
    "thumbnail": null,
    "website": null,
    "wikipedia": null,
    "phone": null,
    "opening_hours": null,
    "opening_hours_raw": null,
    "cuisine": null,
    "stars": null,
    "email": null,
    "address": null,
    "popularity": 0.5
  },
  {
    "id": "c6302f10257f",
    "name": "Volcano Eruption Observation Point",
    "lat": 63.8993025,
    "lng": -22.3183382,
    "category": "viewpoint",
    "region": "Other",
    "rating": null,
    "description": null,
    "thumbnail": null,
    "website": null,
    "wikipedia": null,
    "phone": null,
    "opening_hours": null,
    "opening_hours_raw": null,
    "cuisine": null,
    "stars": null,
    "email": null,
    "address": null,
    "popularity": 0.5
  },
  {
    "id": "cf3de1063a9c",
    "name": "Tjörneslögin",
    "lat": 66.1437906,
    "lng": -17.2571337,
    "category": "landmark",
    "region": "East",
    "rating": null,
    "description": null,
    "thumbnail": null,
    "website": null,
    "wikipedia": null,
    "phone": null,
    "opening_hours": null,
    "opening_hours_raw": null,
    "cuisine": null,
    "stars": null,
    "email": null,
    "address": null,
    "popularity": 0.5
  },
  {
    "id": "0f62cf79c695",
    "name": "Hólar",
    "lat": 65.7331856,
    "lng": -19.1115994,
    "category": "landmark",
    "region": "Northeast",
    "rating": null,
    "description": null,
    "thumbnail": null,
    "website": null,
    "wikipedia": null,
    "phone": null,
    "opening_hours": null,
    "opening_hours_raw": null,
    "cuisine": null,
    "stars": null,
    "email": null,
    "address": null,
    "popularity": 0.5
  },
  {
    "id": "27904fb95499",
    "name": "Hraunfossar / Barnafoss",
    "lat": 64.7017365,
    "lng": -20.9776764,
    "category": "landmark",
    "region": "Northwest",
    "rating": null,
    "description": null,
    "thumbnail": null,
    "website": null,
    "wikipedia": null,
    "phone": null,
    "opening_hours": null,
    "opening_hours_raw": null,
    "cuisine": null,
    "stars": null,
    "email": null,
    "address": null,
    "popularity": 0.5
  },
  {
    "id": "1fe658c44640",
    "name": "Arnarker",
    "lat": 63.8929117,
    "lng": -21.4951932,
    "category": "landmark",
    "region": "Other",
    "rating": null,
    "description": "516 metre long lava tube",
    "thumbnail": null,
    "website": null,
    "wikipedia": null,
    "phone": null,
    "opening_hours": null,
    "opening_hours_raw": null,
    "cuisine": null,
    "stars": null,
    "email": null,
    "address": null,
    "popularity": 0.5
  },
  {
    "id": "ca5b480bf550",
    "name": "Ánastaðarstapi",
    "lat": 65.4808297,
    "lng": -20.9915627,
    "category": "landmark",
    "region": "Northwest",
    "rating": null,
    "description": null,
    "thumbnail": null,
    "website": null,
    "wikipedia": null,
    "phone": null,
    "opening_hours": null,
    "opening_hours_raw": null,
    "cuisine": null,
    "stars": null,
    "email": null,
    "address": null,
    "popularity": 0.5
  },
  {
    "id": "6e7a85886e49",
    "name": "Þorsteinslundur",
    "lat": 63.7211387,
    "lng": -19.9096085,
    "category": "landmark",
    "region": "Other",
    "rating": null,
    "description": null,
    "thumbnail": null,
    "website": null,
    "wikipedia": null,
    "phone": null,
    "opening_hours": null,
    "opening_hours_raw": null,
    "cuisine": null,
    "stars": null,
    "email": null,
    "address": null,
    "popularity": 0.5
  },
  {
    "id": "3f899138988c",
    "name": "Grænavatn",
    "lat": 63.8829651,
    "lng": -22.0569978,
    "category": "landmark",
    "region": "Other",
    "rating": null,
    "description": null,
    "thumbnail": null,
    "website": null,
    "wikipedia": null,
    "phone": null,
    "opening_hours": null,
    "opening_hours_raw": null,
    "cuisine": null,
    "stars": null,
    "email": null,
    "address": null,
    "popularity": 0.5
  },
  {
    "id": "2f304b942cb4",
    "name": "Grjótagjá",
    "lat": 65.6264141,
    "lng": -16.8829708,
    "category": "landmark",
    "region": "East",
    "rating": null,
    "description": null,
    "thumbnail": null,
    "website": null,
    "wikipedia": "de:Grjótagjá",
    "phone": null,
    "opening_hours": {
      "type": "24/7",
      "always_open": true
    },
    "opening_hours_raw": "24/7",
    "cuisine": null,
    "stars": null,
    "email": null,
    "address": null,
    "popularity": 0.5
  },
  {
    "id": "c13bab21669e",
    "name": "Ytri Kleifarhóll",
    "lat": 65.5714447,
    "lng": -17.0225037,
    "category": "landmark",
    "region": "East",
    "rating": null,
    "description": "Pseudo-craters",
    "thumbnail": null,
    "website": null,
    "wikipedia": null,
    "phone": null,
    "opening_hours": null,
    "opening_hours_raw": null,
    "cuisine": null,
    "stars": null,
    "email": null,
    "address": null,
    "popularity": 0.5
  },
  {
    "id": "487584fdb170",
    "name": "Víðgelmir",
    "lat": 64.7502249,
    "lng": -20.8018988,
    "category": "landmark",
    "region": "Northwest",
    "rating": null,
    "description": null,
    "thumbnail": null,
    "website": null,
    "wikipedia": null,
    "phone": null,
    "opening_hours": null,
    "opening_hours_raw": null,
    "cuisine": null,
    "stars": null,
    "email": null,
    "address": null,
    "popularity": 0.5
  },
  {
    "id": "55fd1bb15b8e",
    "name": "Öxarárfoss",
    "lat": 64.265826,
    "lng": -21.1180484,
    "category": "landmark",
    "region": "Capital Region",
    "rating": null,
    "description": null,
    "thumbnail": null,
    "website": null,
    "wikipedia": "is:Öxarárfoss",
    "phone": null,
    "opening_hours": null,
    "opening_hours_raw": null,
    "cuisine": null,
    "stars": null,
    "email": null,
    "address": null,
    "popularity": 0.5
  },
  {
    "id": "a183a73bc851",
    "name": "Þingvellir",
    "lat": 64.2590998,
    "lng": -21.1212537,
    "category": "landmark",
    "region": "Capital Region",
    "rating": null,
    "description": null,
    "thumbnail": null,
    "website": null,
    "wikipedia": "is:Þingvellir",
    "phone": null,
    "opening_hours": null,
    "opening_hours_raw": null,
    "cuisine": null,
    "stars": null,
    "email": null,
    "address": null,
    "popularity": 0.5
  },
  {
    "id": "c49581a887b2",
    "name": "Urriðafoss",
    "lat": 63.9249027,
    "lng": -20.6719415,
    "category": "landmark",
    "region": "South",
    "rating": null,
    "description": null,
    "thumbnail": null,
    "website": null,
    "wikipedia": "en:Urriðafoss",
    "phone": null,
    "opening_hours": null,
    "opening_hours_raw": null,
    "cuisine": null,
    "stars": null,
    "email": null,
    "address": null,
    "popularity": 0.5
  },
  {
    "id": "57215f19b550",
    "name": "Reykjanestá",
    "lat": 63.8127928,
    "lng": -22.7154523,
    "category": "landmark",
    "region": "Other",
    "rating": null,
    "description": "Viewpoint. Furthest point on the Reykjanes peninsula.",
    "thumbnail": null,
    "website": null,
    "wikipedia": null,
    "phone": null,
    "opening_hours": null,
    "opening_hours_raw": null,
    "cuisine": null,
    "stars": null,
    "email": null,
    "address": null,
    "popularity": 0.5
  },
  {
    "id": "bd2ded51047f",
    "name": "Fúlipollur",
    "lat": 63.8939288,
    "lng": -22.051759,
    "category": "landmark",
    "region": "Other",
    "rating": null,
    "description": null,
    "thumbnail": null,
    "website": null,
    "wikipedia": null,
    "phone": null,
    "opening_hours": null,
    "opening_hours_raw": null,
    "cuisine": null,
    "stars": null,
    "email": null,
    "address": null,
    "popularity": 0.5
  },
  {
    "id": "a0ea8a6d529c",
    "name": "Brúarhlöð",
    "lat": 64.2601547,
    "lng": -20.2235551,
    "category": "landmark",
    "region": "Other",
    "rating": null,
    "description": null,
    "thumbnail": null,
    "website": null,
    "wikipedia": null,
    "phone": null,
    "opening_hours": null,
    "opening_hours_raw": null,
    "cuisine": null,
    "stars": null,
    "email": null,
    "address": null,
    "popularity": 0.5
  },
  {
    "id": "62f798e99fbe",
    "name": "Brúarfoss",
    "lat": 64.2642354,
    "lng": -20.5158725,
    "category": "landmark",
    "region": "West",
    "rating": null,
    "description": null,
    "thumbnail": null,
    "website": null,
    "wikipedia": null,
    "phone": null,
    "opening_hours": null,
    "opening_hours_raw": null,
    "cuisine": null,
    "stars": null,
    "email": null,
    "address": null,
    "popularity": 0.5
  },
  {
    "id": "a65a9c45b415",
    "name": "Grenjaðarstaður",
    "lat": 65.8207103,
    "lng": -17.3505459,
    "category": "landmark",
    "region": "East",
    "rating": null,
    "description": null,
    "thumbnail": null,
    "website": null,
    "wikipedia": null,
    "phone": null,
    "opening_hours": null,
    "opening_hours_raw": null,
    "cuisine": null,
    "stars": null,
    "email": null,
    "address": null,
    "popularity": 0.5
  },
  {
    "id": "909601138385",
    "name": "Vatnsgjáin",
    "lat": 64.0430246,
    "lng": -21.8454627,
    "category": "landmark",
    "region": "Capital Region",
    "rating": null,
    "description": null,
    "thumbnail": null,
    "website": null,
    "wikipedia": null,
    "phone": null,
    "opening_hours": null,
    "opening_hours_raw": null,
    "cuisine": null,
    "stars": null,
    "email": null,
    "address": null,
    "popularity": 0.5
  },
  {
    "id": "de6a58a336dd",
    "name": "Gjárétt",
    "lat": 64.0425829,
    "lng": -21.8457132,
    "category": "landmark",
    "region": "Capital Region",
    "rating": null,
    "description": null,
    "thumbnail": null,
    "website": null,
    "wikipedia": null,
    "phone": null,
    "opening_hours": null,
    "opening_hours_raw": null,
    "cuisine": null,
    "stars": null,
    "email": null,
    "address": null,
    "popularity": 0.5
  },
  {
    "id": "a4b3b8e0c9f3",
    "name": "Hallarflöt",
    "lat": 65.5905829,
    "lng": -16.9089815,
    "category": "landmark",
    "region": "East",
    "rating": null,
    "description": null,
    "thumbnail": null,
    "website": null,
    "wikipedia": null,
    "phone": null,
    "opening_hours": null,
    "opening_hours_raw": null,
    "cuisine": null,
    "stars": null,
    "email": null,
    "address": null,
    "popularity": 0.5
  },
  {
    "id": "b3a9b10ec7d0",
    "name": "Sprangan",
    "lat": 63.4432644,
    "lng": -20.2841827,
    "category": "landmark",
    "region": "Other",
    "rating": null,
    "description": null,
    "thumbnail": null,
    "website": null,
    "wikipedia": null,
    "phone": null,
    "opening_hours": null,
    "opening_hours_raw": null,
    "cuisine": null,
    "stars": null,
    "email": null,
    "address": null,
    "popularity": 0.5
  },
  {
    "id": "2364c9b1ca22",
    "name": "Klauf",
    "lat": 63.4107279,
    "lng": -20.2849519,
    "category": "landmark",
    "region": "Other",
    "rating": null,
    "description": null,
    "thumbnail": null,
    "website": null,
    "wikipedia": null,
    "phone": null,
    "opening_hours": null,
    "opening_hours_raw": null,
    "cuisine": null,
    "stars": null,
    "email": null,
    "address": null,
    "popularity": 0.5
  },
  {
    "id": "f07cbf281e8b",
    "name": "Laugarvatnshellir",
    "lat": 64.2175477,
    "lng": -20.88393,
    "category": "landmark",
    "region": "West",
    "rating": null,
    "description": null,
    "thumbnail": null,
    "website": null,
    "wikipedia": "is:Laugarvatnshellar",
    "phone": null,
    "opening_hours": null,
    "opening_hours_raw": null,
    "cuisine": null,
    "stars": null,
    "email": null,
    "address": null,
    "popularity": 0.5
  },
  {
    "id": "5ea70d20e13c",
    "name": "Dverghamrar",
    "lat": 63.8490078,
    "lng": -17.8609519,
    "category": "landmark",
    "region": "Southeast",
    "rating": null,
    "description": null,
    "thumbnail": null,
    "website": null,
    "wikipedia": null,
    "phone": null,
    "opening_hours": null,
    "opening_hours_raw": null,
    "cuisine": null,
    "stars": null,
    "email": null,
    "address": null,
    "popularity": 0.5
  },
  {
    "id": "0bd85467d10a",
    "name": "Kirkja",
    "lat": 65.5857079,
    "lng": -16.9024666,
    "category": "landmark",
    "region": "East",
    "rating": null,
    "description": null,
    "thumbnail": null,
    "website": null,
    "wikipedia": null,
    "phone": null,
    "opening_hours": {
      "type": "24/7",
      "always_open": true
    },
    "opening_hours_raw": "24/7",
    "cuisine": null,
    "stars": null,
    "email": null,
    "address": null,
    "popularity": 0.5
  },
  {
    "id": "6580b62fe862",
    "name": "Hveravellir",
    "lat": 65.8872741,
    "lng": -17.3083216,
    "category": "landmark",
    "region": "East",
    "rating": null,
    "description": null,
    "thumbnail": null,
    "website": null,
    "wikipedia": null,
    "phone": null,
    "opening_hours": null,
    "opening_hours_raw": null,
    "cuisine": null,
    "stars": null,
    "email": null,
    "address": null,
    "popularity": 0.5
  },
  {
    "id": "a6498c6de598",
    "name": "Páskahellir",
    "lat": 65.1575255,
    "lng": -13.640723,
    "category": "landmark",
    "region": "East",
    "rating": null,
    "description": null,
    "thumbnail": null,
    "website": null,
    "wikipedia": null,
    "phone": null,
    "opening_hours": null,
    "opening_hours_raw": null,
    "cuisine": null,
    "stars": null,
    "email": null,
    "address": null,
    "popularity": 0.5
  },
  {
    "id": "2da2472640bb",
    "name": "Rauðfeldsgjá",
    "lat": 64.7991155,
    "lng": -23.6478517,
    "category": "landmark",
    "region": "Northwest",
    "rating": null,
    "description": null,
    "thumbnail": null,
    "website": null,
    "wikipedia": null,
    "phone": null,
    "opening_hours": null,
    "opening_hours_raw": null,
    "cuisine": null,
    "stars": null,
    "email": null,
    "address": null,
    "popularity": 0.5
  },
  {
    "id": "0ec64d54f366",
    "name": "Dettifoss",
    "lat": 65.8143005,
    "lng": -16.384395,
    "category": "landmark",
    "region": "East",
    "rating": null,
    "description": null,
    "thumbnail": null,
    "website": null,
    "wikipedia": "is:Dettifoss",
    "phone": null,
    "opening_hours": null,
    "opening_hours_raw": null,
    "cuisine": null,
    "stars": null,
    "email": null,
    "address": null,
    "popularity": 0.5
  },
  {
    "id": "8acbf4e075c3",
    "name": "Reykjavik Excursions",
    "lat": 64.1374733,
    "lng": -21.9345086,
    "category": "landmark",
    "region": "Capital Region",
    "rating": null,
    "description": null,
    "thumbnail": null,
    "website": null,
    "wikipedia": null,
    "phone": null,
    "opening_hours": null,
    "opening_hours_raw": null,
    "cuisine": null,
    "stars": null,
    "email": null,
    "address": null,
    "popularity": 0.5
  },
  {
    "id": "1297c644b058",
    "name": "Selfoss",
    "lat": 65.8054238,
    "lng": -16.3880173,
    "category": "landmark",
    "region": "East",
    "rating": null,
    "description": null,
    "thumbnail": null,
    "website": null,
    "wikipedia": "en:Selfoss (waterfall)",
    "phone": null,
    "opening_hours": null,
    "opening_hours_raw": null,
    "cuisine": null,
    "stars": null,
    "email": null,
    "address": null,
    "popularity": 0.5
  },
  {
    "id": "10caaa08ec64",
    "name": "Gaukshöfði",
    "lat": 64.0806427,
    "lng": -20.0158609,
    "category": "landmark",
    "region": "South",
    "rating": null,
    "description": null,
    "thumbnail": null,
    "website": null,
    "wikipedia": null,
    "phone": null,
    "opening_hours": null,
    "opening_hours_raw": null,
    "cuisine": null,
    "stars": null,
    "email": null,
    "address": null,
    "popularity": 0.5
  },
  {
    "id": "ab73408d2fdc",
    "name": "Hvannagil",
    "lat": 64.4486193,
    "lng": -14.9435507,
    "category": "landmark",
    "region": "East",
    "rating": null,
    "description": null,
    "thumbnail": null,
    "website": null,
    "wikipedia": null,
    "phone": null,
    "opening_hours": null,
    "opening_hours_raw": null,
    "cuisine": null,
    "stars": null,
    "email": null,
    "address": null,
    "popularity": 0.5
  },
  {
    "id": "7bfdefacc06b",
    "name": "Stórurð",
    "lat": 65.5147499,
    "lng": -13.9965166,
    "category": "landmark",
    "region": "East",
    "rating": null,
    "description": null,
    "thumbnail": null,
    "website": null,
    "wikipedia": null,
    "phone": null,
    "opening_hours": null,
    "opening_hours_raw": null,
    "cuisine": null,
    "stars": null,
    "email": null,
    "address": null,
    "popularity": 0.5
  },
  {
    "id": "7e8350a06d21",
    "name": "Kolufossar",
    "lat": 65.3319322,
    "lng": -20.5695927,
    "category": "landmark",
    "region": "Northwest",
    "rating": null,
    "description": null,
    "thumbnail": null,
    "website": null,
    "wikipedia": null,
    "phone": null,
    "opening_hours": null,
    "opening_hours_raw": null,
    "cuisine": null,
    "stars": null,
    "email": null,
    "address": null,
    "popularity": 0.5
  },
  {
    "id": "526b1a91ba76",
    "name": "Hveravellir",
    "lat": 64.8653256,
    "lng": -19.5565211,
    "category": "landmark",
    "region": "Other",
    "rating": null,
    "description": null,
    "thumbnail": null,
    "website": null,
    "wikipedia": null,
    "phone": null,
    "opening_hours": null,
    "opening_hours_raw": null,
    "cuisine": null,
    "stars": null,
    "email": null,
    "address": null,
    "popularity": 0.5
  },
  {
    "id": "6c52bee0d873",
    "name": "Hvannalindir",
    "lat": 64.888703,
    "lng": -16.3085369,
    "category": "landmark",
    "region": "East",
    "rating": null,
    "description": null,
    "thumbnail": null,
    "website": null,
    "wikipedia": null,
    "phone": null,
    "opening_hours": null,
    "opening_hours_raw": null,
    "cuisine": null,
    "stars": null,
    "email": null,
    "address": null,
    "popularity": 0.5
  },
  {
    "id": "816bdb9ea6cb",
    "name": "Lóndrangar",
    "lat": 64.7324143,
    "lng": -23.7839013,
    "category": "landmark",
    "region": "Northwest",
    "rating": null,
    "description": null,
    "thumbnail": null,
    "website": null,
    "wikipedia": "is:Lóndrangar",
    "phone": null,
    "opening_hours": null,
    "opening_hours_raw": null,
    "cuisine": null,
    "stars": null,
    "email": null,
    "address": null,
    "popularity": 0.5
  },
  {
    "id": "0ee707da500b",
    "name": "Seltún",
    "lat": 63.8952515,
    "lng": -22.0555191,
    "category": "landmark",
    "region": "Other",
    "rating": null,
    "description": null,
    "thumbnail": null,
    "website": null,
    "wikipedia": null,
    "phone": null,
    "opening_hours": null,
    "opening_hours_raw": null,
    "cuisine": null,
    "stars": null,
    "email": null,
    "address": null,
    "popularity": 0.5
  },
  {
    "id": "4433e099c60f",
    "name": "Ingvararfoss",
    "lat": 65.3660256,
    "lng": -17.3266819,
    "category": "landmark",
    "region": "East",
    "rating": null,
    "description": null,
    "thumbnail": null,
    "website": null,
    "wikipedia": null,
    "phone": null,
    "opening_hours": null,
    "opening_hours_raw": null,
    "cuisine": null,
    "stars": null,
    "email": null,
    "address": null,
    "popularity": 0.5
  },
  {
    "id": "1728cfe7b8bf",
    "name": "Aldeyjarfoss",
    "lat": 65.3664045,
    "lng": -17.3370017,
    "category": "landmark",
    "region": "East",
    "rating": null,
    "description": null,
    "thumbnail": null,
    "website": null,
    "wikipedia": "is:Aldeyjarfoss",
    "phone": null,
    "opening_hours": null,
    "opening_hours_raw": null,
    "cuisine": null,
    "stars": null,
    "email": null,
    "address": null,
    "popularity": 0.5
  },
  {
    "id": "8ca9dceb3af7",
    "name": "Jólagarðurinn",
    "lat": 65.5801107,
    "lng": -18.0915007,
    "category": "landmark",
    "region": "North",
    "rating": null,
    "description": null,
    "thumbnail": null,
    "website": null,
    "wikipedia": null,
    "phone": null,
    "opening_hours": null,
    "opening_hours_raw": null,
    "cuisine": null,
    "stars": null,
    "email": null,
    "address": null,
    "popularity": 0.5
  },
  {
    "id": "6be989e4dda3",
    "name": "Karl og Kerling",
    "lat": 65.9254214,
    "lng": -16.5293299,
    "category": "landmark",
    "region": "East",
    "rating": null,
    "description": null,
    "thumbnail": null,
    "website": null,
    "wikipedia": null,
    "phone": null,
    "opening_hours": null,
    "opening_hours_raw": null,
    "cuisine": null,
    "stars": null,
    "email": null,
    "address": null,
    "popularity": 0.5
  },
  {
    "id": "b8707cc0d3e4",
    "name": "Búðir",
    "lat": 64.8219086,
    "lng": -23.3841625,
    "category": "landmark",
    "region": "Northwest",
    "rating": null,
    "description": null,
    "thumbnail": null,
    "website": null,
    "wikipedia": "is:Búðir",
    "phone": null,
    "opening_hours": null,
    "opening_hours_raw": null,
    "cuisine": null,
    "stars": null,
    "email": null,
    "address": null,
    "popularity": 0.5
  },
  {
    "id": "5d814678e877",
    "name": "Dritvík",
    "lat": 64.7537884,
    "lng": -23.9154437,
    "category": "landmark",
    "region": "Northwest",
    "rating": null,
    "description": null,
    "thumbnail": null,
    "website": null,
    "wikipedia": "is:Dritvík",
    "phone": null,
    "opening_hours": null,
    "opening_hours_raw": null,
    "cuisine": null,
    "stars": null,
    "email": null,
    "address": null,
    "popularity": 0.5
  },
  {
    "id": "ff40c931323c",
    "name": "Ásbyrgi",
    "lat": 66.0015884,
    "lng": -16.5122266,
    "category": "landmark",
    "region": "East",
    "rating": null,
    "description": null,
    "thumbnail": null,
    "website": null,
    "wikipedia": "en:Ásbyrgi",
    "phone": null,
    "opening_hours": null,
    "opening_hours_raw": null,
    "cuisine": null,
    "stars": null,
    "email": null,
    "address": null,
    "popularity": 0.5
  },
  {
    "id": "dbb4ccf36661",
    "name": "Núpsstaður",
    "lat": 63.9601956,
    "lng": -17.5776898,
    "category": "landmark",
    "region": "Southeast",
    "rating": null,
    "description": null,
    "thumbnail": null,
    "website": null,
    "wikipedia": null,
    "phone": null,
    "opening_hours": null,
    "opening_hours_raw": null,
    "cuisine": null,
    "stars": null,
    "email": null,
    "address": null,
    "popularity": 0.5
  },